{"type": "FeatureCollection", "features": [{"type":"Feature","geometry":{"type":"Point","coordinates":[-82.890293,37.179437]},"properties":{"cartodb_id":212,"msha_id":1519690,"name":"#1","type_":"Surface","county":"Letcher","unit":"short tons","tot_prod":2518}},{"type":"Feature","geometry":{"type":"Point","coordinates":[-79.440666,40.616746]},"properties":{"cartodb_id":332,"msha_id":3607443,"name":"Cherep #1","type_":"Surface","county":"Allegheny","unit":"short tons","tot_prod":7516}},{"type":"Feature","geometry":{"type":"Point","coordinates":[-78.478483,40.915888]},"properties":{"cartodb_id":413,"msha_id":3609341,"name":"Roy #2","type_":"Surface","county":"Clearfield","unit":"short tons","tot_prod":10}},{"type":"Feature","geometry":{"type":"Point","coordinates":[-82.568889,37.499167]},"properties":{"cartodb_id":159,"msha_id":1519153,"name":"#1 Mine","type_":"Underground","county":"Pike","unit":"short tons","tot_prod":4705}},{"type":"Feature","geometry":{"type":"Point","coordinates":[-82.597818,37.059078]},"properties":{"cartodb_id":552,"msha_id":4407284,"name":"#2","type_":"Surface","county":"Wise","unit":"short tons","tot_prod":16166}},{"type":"Feature","geometry":{"type":"Point","coordinates":[-82.64817,37.284442]},"properties":{"cartodb_id":147,"msha_id":1518946,"name":"Job #49","type_":"Surface","county":"Pike","unit":"short tons","tot_prod":172397}},{"type":"Feature","geometry":{"type":"Point","coordinates":[-80.169333,40.41313]},"properties":{"cartodb_id":440,"msha_id":3609566,"name":"Cherry Mine","type_":"Surface","county":"Allegheny","unit":"short tons","tot_prod":180}},{"type":"Feature","geometry":{"type":"Point","coordinates":[-87.278611,33.706666]},"properties":{"cartodb_id":1,"msha_id":100347,"name":"Choctaw Mine","type_":"Surface","county":"Walker","unit":"short tons","tot_prod":117057}},{"type":"Feature","geometry":{"type":"Point","coordinates":[-87.203056,33.696389]},"properties":{"cartodb_id":2,"msha_id":100627,"name":"Flat Top Mine","type_":"Surface","county":"Jefferson","unit":"short tons","tot_prod":281668}},{"type":"Feature","geometry":{"type":"Point","coordinates":[-87.138889,33.442222]},"properties":{"cartodb_id":3,"msha_id":100851,"name":"Oak Grove Mine","type_":"Underground","county":"Jefferson","unit":"short tons","tot_prod":1474588}},{"type":"Feature","geometry":{"type":"Point","coordinates":[-87.331389,33.328611]},"properties":{"cartodb_id":4,"msha_id":101247,"name":"No 4 Mine","type_":"Underground","county":"Tuscaloosa","unit":"short tons","tot_prod":343771}},{"type":"Feature","geometry":{"type":"Point","coordinates":[-87.213611,33.374167]},"properties":{"cartodb_id":5,"msha_id":101401,"name":"No 7 Mine","type_":"Underground","county":"Jefferson","unit":"short tons","tot_prod":3067565}},{"type":"Feature","geometry":{"type":"Point","coordinates":[-87.303889,33.519444]},"properties":{"cartodb_id":6,"msha_id":102901,"name":"Shoal Creek Mine","type_":"Underground","county":"Walker","unit":"short tons","tot_prod":2324188}},{"type":"Feature","geometry":{"type":"Point","coordinates":[-87.339722,33.329167]},"properties":{"cartodb_id":7,"msha_id":103172,"name":"Searles Mine No. 2, 3, 4, 5, 6","type_":"Surface","county":"Tuscaloosa","unit":"short tons","tot_prod":18382}},{"type":"Feature","geometry":{"type":"Point","coordinates":[-86.904166,33.758333]},"properties":{"cartodb_id":8,"msha_id":103180,"name":"Sloan Mountain Mine","type_":"Surface","county":"Jefferson","unit":"short tons","tot_prod":234852}},{"type":"Feature","geometry":{"type":"Point","coordinates":[-87.374167,33.83]},"properties":{"cartodb_id":9,"msha_id":103195,"name":"Mccollum/Sparks Branch Mine","type_":"Surface","county":"Walker","unit":"short tons","tot_prod":68468}},{"type":"Feature","geometry":{"type":"Point","coordinates":[-87.608333,34.325]},"properties":{"cartodb_id":10,"msha_id":103246,"name":"Bear Creek","type_":"Surface","county":"Franklin","unit":"short tons","tot_prod":43155}},{"type":"Feature","geometry":{"type":"Point","coordinates":[-86.910833,33.724167]},"properties":{"cartodb_id":11,"msha_id":103285,"name":"Narley Mine","type_":"Surface","county":"Jefferson","unit":"short tons","tot_prod":108420}},{"type":"Feature","geometry":{"type":"Point","coordinates":[-87.613458,33.999371]},"properties":{"cartodb_id":12,"msha_id":103337,"name":"Gooden Creek","type_":"Surface","county":"Walker","unit":"short tons","tot_prod":36396}},{"type":"Feature","geometry":{"type":"Point","coordinates":[-87.2725,33.670833]},"properties":{"cartodb_id":13,"msha_id":103342,"name":"Reese's Branch Mine","type_":"Surface","county":"Walker","unit":"short tons","tot_prod":303803}},{"type":"Feature","geometry":{"type":"Point","coordinates":[-87.479482,34.02832]},"properties":{"cartodb_id":14,"msha_id":103358,"name":"Old Union","type_":"Surface","county":"Winston","unit":"short tons","tot_prod":42559}},{"type":"Feature","geometry":{"type":"Point","coordinates":[-87.171667,33.3425]},"properties":{"cartodb_id":15,"msha_id":103375,"name":"Johnson Mine","type_":"Surface","county":"Jefferson","unit":"short tons","tot_prod":5870}},{"type":"Feature","geometry":{"type":"Point","coordinates":[-86.853913,33.178037]},"properties":{"cartodb_id":16,"msha_id":103381,"name":"Jesse Creek H.W.M.","type_":"Surface","county":"Bibb","unit":"short tons","tot_prod":37786}},{"type":"Feature","geometry":{"type":"Point","coordinates":[-87.530833,33.873056]},"properties":{"cartodb_id":17,"msha_id":103389,"name":"Carbon Hill Mine","type_":"Underground","county":"Walker","unit":"short tons","tot_prod":33102}},{"type":"Feature","geometry":{"type":"Point","coordinates":[-87.436111,33.782222]},"properties":{"cartodb_id":18,"msha_id":103410,"name":"Coal Valley Mine","type_":"Surface","county":"Walker","unit":"short tons","tot_prod":5244}},{"type":"Feature","geometry":{"type":"Point","coordinates":[-87.140556,33.602222]},"properties":{"cartodb_id":19,"msha_id":103419,"name":"Maxine-Pratt Mine","type_":"Underground","county":"Jefferson","unit":"short tons","tot_prod":186784}},{"type":"Feature","geometry":{"type":"Point","coordinates":[-86.9425,33.1975]},"properties":{"cartodb_id":20,"msha_id":103422,"name":"Clark No 1 Mine","type_":"Underground","county":"Shelby","unit":"short tons","tot_prod":4011}},{"type":"Feature","geometry":{"type":"Point","coordinates":[-87.265278,33.746667]},"properties":{"cartodb_id":21,"msha_id":103432,"name":"Skelton Creek","type_":"Surface","county":"Jefferson","unit":"short tons","tot_prod":7412}},{"type":"Feature","geometry":{"type":"Point","coordinates":[-86.861944,33.738333]},"properties":{"cartodb_id":22,"msha_id":103437,"name":"Black Warrior Mine No 1","type_":"Surface","county":"Jefferson","unit":"short tons","tot_prod":313259}},{"type":"Feature","geometry":{"type":"Point","coordinates":[-87.255157,33.947197]},"properties":{"cartodb_id":23,"msha_id":103444,"name":"Little Spring Creek Mine","type_":"Surface","county":"Walker","unit":"short tons","tot_prod":114338}},{"type":"Feature","geometry":{"type":"Point","coordinates":[-87.617777,34.3425]},"properties":{"cartodb_id":24,"msha_id":103451,"name":"Knight Mine","type_":"Surface","county":"Franklin","unit":"short tons","tot_prod":22218}},{"type":"Feature","geometry":{"type":"Point","coordinates":[-87.4352,33.782006]},"properties":{"cartodb_id":25,"msha_id":103462,"name":"Coal Valley East Mine","type_":"Surface","county":"Walker","unit":"short tons","tot_prod":194172}},{"type":"Feature","geometry":{"type":"Point","coordinates":[-86.980278,33.174444]},"properties":{"cartodb_id":26,"msha_id":103472,"name":"Gurnee Surface Mine","type_":"Surface","county":"Shelby","unit":"short tons","tot_prod":88526}},{"type":"Feature","geometry":{"type":"Point","coordinates":[-87.361389,33.257778]},"properties":{"cartodb_id":27,"msha_id":103487,"name":"Carter Mine","type_":"Surface","county":"Tuscaloosa","unit":"short tons","tot_prod":87768}},{"type":"Feature","geometry":{"type":"Point","coordinates":[-87.352222,33.803056]},"properties":{"cartodb_id":28,"msha_id":103496,"name":"Dutton Hill Mine No. 2","type_":"Surface","county":"Walker","unit":"short tons","tot_prod":22426}},{"type":"Feature","geometry":{"type":"Point","coordinates":[-87.616111,34.040556]},"properties":{"cartodb_id":29,"msha_id":103497,"name":"Gooden Creek Ii","type_":"Surface","county":"Walker","unit":"short tons","tot_prod":24842}},{"type":"Feature","geometry":{"type":"Point","coordinates":[-86.926667,33.209167]},"properties":{"cartodb_id":30,"msha_id":103500,"name":"Murry Creek Surface Mine","type_":"Surface","county":"Shelby","unit":"short tons","tot_prod":30344}},{"type":"Feature","geometry":{"type":"Point","coordinates":[-110.723055,36.5]},"properties":{"cartodb_id":31,"msha_id":201195,"name":"Kayenta Mine","type_":"Surface","county":"Navajo","unit":"short tons","tot_prod":5422850}},{"type":"Feature","geometry":{"type":"Point","coordinates":[-94.283056,35.016667]},"properties":{"cartodb_id":32,"msha_id":300968,"name":"Stryton Mine #1","type_":"Surface","county":"Sebastian","unit":"short tons","tot_prod":5990}},{"type":"Feature","geometry":{"type":"Point","coordinates":[-94.331027,35.099543]},"properties":{"cartodb_id":33,"msha_id":301569,"name":"Penny #1","type_":"Surface","county":"Sebastian","unit":"short tons","tot_prod":6644}},{"type":"Feature","geometry":{"type":"Point","coordinates":[-94.365,35.008889]},"properties":{"cartodb_id":34,"msha_id":301736,"name":"Sebastian Mine","type_":"Underground","county":"Sebastian","unit":"short tons","tot_prod":36781}},{"type":"Feature","geometry":{"type":"Point","coordinates":[-108.571944,38.269166]},"properties":{"cartodb_id":35,"msha_id":500299,"name":"New Horizon Mine","type_":"Surface","county":"Montrose","unit":"short tons","tot_prod":187983}},{"type":"Feature","geometry":{"type":"Point","coordinates":[-107.631111,40.452222]},"properties":{"cartodb_id":36,"msha_id":502838,"name":"Trapper Mine","type_":"Surface","county":"Moffat","unit":"short tons","tot_prod":1809325}},{"type":"Feature","geometry":{"type":"Point","coordinates":[-107.783333,40.3]},"properties":{"cartodb_id":37,"msha_id":502962,"name":"Colowyo Mine","type_":"Surface","county":"Moffat","unit":"short tons","tot_prod":1851611}},{"type":"Feature","geometry":{"type":"Point","coordinates":[-108.726111,40.169167]},"properties":{"cartodb_id":38,"msha_id":503505,"name":"Deserado Mine","type_":"Underground","county":"Rio Blanco","unit":"short tons","tot_prod":1335131}},{"type":"Feature","geometry":{"type":"Point","coordinates":[-107.458056,38.933056]},"properties":{"cartodb_id":39,"msha_id":503672,"name":"West Elk Mine","type_":"Underground","county":"Gunnison","unit":"short tons","tot_prod":4156405}},{"type":"Feature","geometry":{"type":"Point","coordinates":[-107.071944,40.352777]},"properties":{"cartodb_id":40,"msha_id":503836,"name":"Foidel Creek Mine","type_":"Underground","county":"Routt","unit":"short tons","tot_prod":2594392}},{"type":"Feature","geometry":{"type":"Point","coordinates":[-107.54603,38.930864]},"properties":{"cartodb_id":41,"msha_id":504591,"name":"Bowie No 2 Mine","type_":"Underground","county":"Delta","unit":"short tons","tot_prod":66684}},{"type":"Feature","geometry":{"type":"Point","coordinates":[-108.098055,37.251111]},"properties":{"cartodb_id":42,"msha_id":504864,"name":"King Ii","type_":"Underground","county":"La Plata","unit":"short tons","tot_prod":632605}},{"type":"Feature","geometry":{"type":"Point","coordinates":[-89.012745,38.116855]},"properties":{"cartodb_id":43,"msha_id":1100588,"name":"Old Ed #21","type_":"Surface","county":"Franklin","unit":"short tons","tot_prod":1841}},{"type":"Feature","geometry":{"type":"Point","coordinates":[-89.862778,39.205833]},"properties":{"cartodb_id":44,"msha_id":1100726,"name":"Shay #1 Mine","type_":"Underground","county":"Macoupin","unit":"short tons","tot_prod":2188956}},{"type":"Feature","geometry":{"type":"Point","coordinates":[-89.449722,40.003611]},"properties":{"cartodb_id":45,"msha_id":1102664,"name":"Viper Mine","type_":"Underground","county":"Sangamon","unit":"short tons","tot_prod":1662791}},{"type":"Feature","geometry":{"type":"Point","coordinates":[-88.582886,37.819544]},"properties":{"cartodb_id":46,"msha_id":1102752,"name":"The American Coal Company New","type_":"Underground","county":"Saline","unit":"short tons","tot_prod":1734219}},{"type":"Feature","geometry":{"type":"Point","coordinates":[-88.333333,37.666666]},"properties":{"cartodb_id":47,"msha_id":1103017,"name":"Wildcat Hills Mine - Cottage G","type_":"Surface","county":"Gallatin","unit":"short tons","tot_prod":235436}},{"type":"Feature","geometry":{"type":"Point","coordinates":[-89.420833,37.930555]},"properties":{"cartodb_id":48,"msha_id":1103020,"name":"Creek Paum Mine","type_":"Surface","county":"Jackson","unit":"short tons","tot_prod":2706}},{"type":"Feature","geometry":{"type":"Point","coordinates":[-89.3125,37.958333]},"properties":{"cartodb_id":49,"msha_id":1103045,"name":"Red Hawk","type_":"Surface","county":"Perry","unit":"short tons","tot_prod":190072}},{"type":"Feature","geometry":{"type":"Point","coordinates":[-88.099722,38.075]},"properties":{"cartodb_id":50,"msha_id":1103058,"name":"Pattiki","type_":"Underground","county":"White","unit":"short tons","tot_prod":1850638}},{"type":"Feature","geometry":{"type":"Point","coordinates":[-87.843242,38.417532]},"properties":{"cartodb_id":51,"msha_id":1103064,"name":"Friendsville Mine","type_":"Surface","county":"Wabash","unit":"short tons","tot_prod":274680}},{"type":"Feature","geometry":{"type":"Point","coordinates":[-88.831111,37.838889]},"properties":{"cartodb_id":52,"msha_id":1103141,"name":"Mach #1 Mine","type_":"Underground","county":"Williamson","unit":"short tons","tot_prod":5406820}},{"type":"Feature","geometry":{"type":"Point","coordinates":[-89.585556,38.071389]},"properties":{"cartodb_id":53,"msha_id":1103147,"name":"Prairie Eagle-Underground","type_":"Underground","county":"Perry","unit":"short tons","tot_prod":3277461}},{"type":"Feature","geometry":{"type":"Point","coordinates":[-88.389167,37.773889]},"properties":{"cartodb_id":54,"msha_id":1103156,"name":"Wildcat Hills Mine-Underground","type_":"Underground","county":"Saline","unit":"short tons","tot_prod":1544188}},{"type":"Feature","geometry":{"type":"Point","coordinates":[-88.762222,38.026944]},"properties":{"cartodb_id":55,"msha_id":1103189,"name":"Mc#1 Mine","type_":"Underground","county":"Franklin","unit":"short tons","tot_prod":11443835}},{"type":"Feature","geometry":{"type":"Point","coordinates":[-89.654722,38.283056]},"properties":{"cartodb_id":56,"msha_id":1103193,"name":"Lively Grove Mine","type_":"Underground","county":"Washington","unit":"short tons","tot_prod":5913129}},{"type":"Feature","geometry":{"type":"Point","coordinates":[-88.601667,38.171111]},"properties":{"cartodb_id":57,"msha_id":1103203,"name":"Mine No. 1","type_":"Underground","county":"Hamilton","unit":"short tons","tot_prod":3017507}},{"type":"Feature","geometry":{"type":"Point","coordinates":[-88.531101,37.720999]},"properties":{"cartodb_id":58,"msha_id":1103212,"name":"Eagle River Coal Llc Mine No 1","type_":"Surface","county":"Saline","unit":"short tons","tot_prod":633211}},{"type":"Feature","geometry":{"type":"Point","coordinates":[-89.720629,38.07415]},"properties":{"cartodb_id":59,"msha_id":1103226,"name":"Hawkeye Mine","type_":"Surface","county":"Randolph","unit":"short tons","tot_prod":266277}},{"type":"Feature","geometry":{"type":"Point","coordinates":[-88.639444,37.836389]},"properties":{"cartodb_id":60,"msha_id":1103232,"name":"New Future Mine","type_":"Underground","county":"Saline","unit":"short tons","tot_prod":1406428}},{"type":"Feature","geometry":{"type":"Point","coordinates":[-89.620278,38.188889]},"properties":{"cartodb_id":61,"msha_id":1103235,"name":"Gateway North Mine","type_":"Underground","county":"Randolph","unit":"short tons","tot_prod":1811199}},{"type":"Feature","geometry":{"type":"Point","coordinates":[-89.567777,37.993055]},"properties":{"cartodb_id":62,"msha_id":1103241,"name":"Jordan","type_":"Surface","county":"Perry","unit":"short tons","tot_prod":96813}},{"type":"Feature","geometry":{"type":"Point","coordinates":[-88.704167,37.758889]},"properties":{"cartodb_id":63,"msha_id":1103247,"name":"Delta Carbon Project","type_":"Surface","county":"Saline","unit":"short tons","tot_prod":151270}},{"type":"Feature","geometry":{"type":"Point","coordinates":[-89.600555,38.089444]},"properties":{"cartodb_id":64,"msha_id":1103248,"name":"Black Hawk","type_":"Surface","county":"Randolph","unit":"short tons","tot_prod":410984}},{"type":"Feature","geometry":{"type":"Point","coordinates":[-89.454722,38.018611]},"properties":{"cartodb_id":65,"msha_id":1103274,"name":"Golden Eagle Mine","type_":"Surface","county":"Perry","unit":"short tons","tot_prod":54786}},{"type":"Feature","geometry":{"type":"Point","coordinates":[-87.366902,38.264245]},"properties":{"cartodb_id":66,"msha_id":1202258,"name":"Somerville Central Mine","type_":"Surface","county":"Gibson","unit":"short tons","tot_prod":2095218}},{"type":"Feature","geometry":{"type":"Point","coordinates":[-87.433889,38.3375]},"properties":{"cartodb_id":67,"msha_id":1202295,"name":"Francisco Underground Pit","type_":"Underground","county":"Gibson","unit":"short tons","tot_prod":2153789}},{"type":"Feature","geometry":{"type":"Point","coordinates":[-87.245391,38.839214]},"properties":{"cartodb_id":68,"msha_id":1202339,"name":"Freelandville East","type_":"Surface","county":"Knox","unit":"short tons","tot_prod":2136}},{"type":"Feature","geometry":{"type":"Point","coordinates":[-87.392778,38.943611]},"properties":{"cartodb_id":69,"msha_id":1202349,"name":"Carlisle Mine","type_":"Underground","county":"Sullivan","unit":"short tons","tot_prod":3957}},{"type":"Feature","geometry":{"type":"Point","coordinates":[-87.0875,38.705277]},"properties":{"cartodb_id":70,"msha_id":1202372,"name":"Antioch Mine","type_":"Surface","county":"Daviess","unit":"short tons","tot_prod":1112835}},{"type":"Feature","geometry":{"type":"Point","coordinates":[-87.039618,38.465729]},"properties":{"cartodb_id":71,"msha_id":1202374,"name":"Shamrock Mine","type_":"Surface","county":"Dubois","unit":"short tons","tot_prod":1225920}},{"type":"Feature","geometry":{"type":"Point","coordinates":[-87.55882,38.341636]},"properties":{"cartodb_id":72,"msha_id":1202388,"name":"Gibson South","type_":"Underground","county":"Gibson","unit":"short tons","tot_prod":3943328}},{"type":"Feature","geometry":{"type":"Point","coordinates":[-87.425,38.856111]},"properties":{"cartodb_id":73,"msha_id":1202394,"name":"Oaktown Fuels Mine No 1","type_":"Underground","county":"Knox","unit":"short tons","tot_prod":3827739}},{"type":"Feature","geometry":{"type":"Point","coordinates":[-87.289722,38.158333]},"properties":{"cartodb_id":74,"msha_id":1202407,"name":"West 61","type_":"Surface","county":"Warrick","unit":"short tons","tot_prod":31694}},{"type":"Feature","geometry":{"type":"Point","coordinates":[-87.247777,38.279722]},"properties":{"cartodb_id":75,"msha_id":1202410,"name":"Log Creek Surface","type_":"Surface","county":"Pike","unit":"short tons","tot_prod":416067}},{"type":"Feature","geometry":{"type":"Point","coordinates":[-87.0975,37.354444]},"properties":{"cartodb_id":76,"msha_id":1202416,"name":"Addcar Systems 20 Hwm Serial N","type_":"Surface","county":"Ohio","unit":"short tons","tot_prod":212367}},{"type":"Feature","geometry":{"type":"Point","coordinates":[-87.425,38.858611]},"properties":{"cartodb_id":77,"msha_id":1202418,"name":"Oaktown Fuels Mine No 2","type_":"Underground","county":"Knox","unit":"short tons","tot_prod":1946919}},{"type":"Feature","geometry":{"type":"Point","coordinates":[-87.265495,38.51667]},"properties":{"cartodb_id":78,"msha_id":1202422,"name":"Bear Run Mine","type_":"Surface","county":"Sullivan","unit":"short tons","tot_prod":7283179}},{"type":"Feature","geometry":{"type":"Point","coordinates":[-87.292778,38.881389]},"properties":{"cartodb_id":79,"msha_id":1202423,"name":"Freelandville West Underground","type_":"Underground","county":"Knox","unit":"short tons","tot_prod":123078}},{"type":"Feature","geometry":{"type":"Point","coordinates":[-87.068611,38.269444]},"properties":{"cartodb_id":80,"msha_id":1202425,"name":"Hilsmeyer Mine","type_":"Surface","county":"Dubois","unit":"short tons","tot_prod":75536}},{"type":"Feature","geometry":{"type":"Point","coordinates":[-87.336997,38.102546]},"properties":{"cartodb_id":81,"msha_id":1202428,"name":"Liberty Mine","type_":"Surface","county":"Warrick","unit":"short tons","tot_prod":1141643}},{"type":"Feature","geometry":{"type":"Point","coordinates":[-87.223889,39.128333]},"properties":{"cartodb_id":82,"msha_id":1202431,"name":"Gold Star Mine","type_":"Underground","county":"Greene","unit":"short tons","tot_prod":14871}},{"type":"Feature","geometry":{"type":"Point","coordinates":[-87.279722,38.178333]},"properties":{"cartodb_id":83,"msha_id":1202441,"name":"Wild Boar Mine","type_":"Surface","county":"Warrick","unit":"short tons","tot_prod":2597983}},{"type":"Feature","geometry":{"type":"Point","coordinates":[-87.290277,38.236666]},"properties":{"cartodb_id":84,"msha_id":1202446,"name":"Cardinal Mine","type_":"Surface","county":"Pike","unit":"short tons","tot_prod":186539}},{"type":"Feature","geometry":{"type":"Point","coordinates":[-87.250239,38.801462]},"properties":{"cartodb_id":85,"msha_id":1202450,"name":"Log Creek Underground","type_":"Underground","county":"Pike","unit":"short tons","tot_prod":249531}},{"type":"Feature","geometry":{"type":"Point","coordinates":[-87.096944,39.275]},"properties":{"cartodb_id":86,"msha_id":1202460,"name":"Ace In The Hole","type_":"Surface","county":"Clay","unit":"short tons","tot_prod":334743}},{"type":"Feature","geometry":{"type":"Point","coordinates":[-94.561926,38.144359]},"properties":{"cartodb_id":87,"msha_id":1401631,"name":"Lucky Strike Mine","type_":"Surface","county":"Linn","unit":"short tons","tot_prod":26788}},{"type":"Feature","geometry":{"type":"Point","coordinates":[-87.777525,37.452653]},"properties":{"cartodb_id":88,"msha_id":1502132,"name":"Dotiki Mine","type_":"Underground","county":"Webster","unit":"short tons","tot_prod":3744015}},{"type":"Feature","geometry":{"type":"Point","coordinates":[-83.010833,36.874722]},"properties":{"cartodb_id":89,"msha_id":1502263,"name":"Darby Fork No 1","type_":"Underground","county":"Harlan","unit":"short tons","tot_prod":443670}},{"type":"Feature","geometry":{"type":"Point","coordinates":[-83.297539,37.325912]},"properties":{"cartodb_id":90,"msha_id":1503627,"name":"#20 Strip Job","type_":"Surface","county":"Perry","unit":"short tons","tot_prod":147128}},{"type":"Feature","geometry":{"type":"Point","coordinates":[-83.119113,37.02677]},"properties":{"cartodb_id":91,"msha_id":1509636,"name":"No. 77","type_":"Underground","county":"Perry","unit":"short tons","tot_prod":249967}},{"type":"Feature","geometry":{"type":"Point","coordinates":[-83.239444,37.119167]},"properties":{"cartodb_id":92,"msha_id":1512753,"name":"Calvary No 81","type_":"Underground","county":"Leslie","unit":"short tons","tot_prod":432668}},{"type":"Feature","geometry":{"type":"Point","coordinates":[-82.607222,38.184722]},"properties":{"cartodb_id":93,"msha_id":1513418,"name":"Dredge #1","type_":"Surface","county":"Lawrence","unit":"short tons","tot_prod":276}},{"type":"Feature","geometry":{"type":"Point","coordinates":[-83.360249,36.826278]},"properties":{"cartodb_id":94,"msha_id":1514728,"name":"S-25 Foresters Spur","type_":"Surface","county":"Harlan","unit":"short tons","tot_prod":178823}},{"type":"Feature","geometry":{"type":"Point","coordinates":[-82.337222,37.448333]},"properties":{"cartodb_id":95,"msha_id":1515215,"name":"# 5","type_":"Underground","county":"Pike","unit":"short tons","tot_prod":97562}},{"type":"Feature","geometry":{"type":"Point","coordinates":[-82.966578,37.916128]},"properties":{"cartodb_id":96,"msha_id":1515851,"name":"Mine No 1","type_":"Surface","county":"Johnson","unit":"short tons","tot_prod":3273}},{"type":"Feature","geometry":{"type":"Point","coordinates":[-82.526389,37.566389]},"properties":{"cartodb_id":97,"msha_id":1516855,"name":"#2","type_":"Underground","county":"Pike","unit":"short tons","tot_prod":14636}},{"type":"Feature","geometry":{"type":"Point","coordinates":[-83.346667,37.376667]},"properties":{"cartodb_id":98,"msha_id":1516883,"name":"Combs Branch Job","type_":"Surface","county":"Perry","unit":"short tons","tot_prod":20587}},{"type":"Feature","geometry":{"type":"Point","coordinates":[-87.535278,37.405278]},"properties":{"cartodb_id":99,"msha_id":1517216,"name":"Cardinal","type_":"Underground","county":"Hopkins","unit":"short tons","tot_prod":3827292}},{"type":"Feature","geometry":{"type":"Point","coordinates":[-82.963889,36.869444]},"properties":{"cartodb_id":100,"msha_id":1517234,"name":"Huff Creek No 1","type_":"Underground","county":"Harlan","unit":"short tons","tot_prod":398318}},{"type":"Feature","geometry":{"type":"Point","coordinates":[-83.129167,37.203611]},"properties":{"cartodb_id":101,"msha_id":1517497,"name":"No. 68","type_":"Underground","county":"Knott","unit":"short tons","tot_prod":1544}},{"type":"Feature","geometry":{"type":"Point","coordinates":[-82.524488,37.2476]},"properties":{"cartodb_id":102,"msha_id":1517659,"name":"Three Mile Mine #1","type_":"Surface","county":"Pike","unit":"short tons","tot_prod":130033}},{"type":"Feature","geometry":{"type":"Point","coordinates":[-83.890946,36.799865]},"properties":{"cartodb_id":103,"msha_id":1517691,"name":"Mine #3","type_":"Underground","county":"Knox","unit":"short tons","tot_prod":26169}},{"type":"Feature","geometry":{"type":"Point","coordinates":[-87.209722,37.299444]},"properties":{"cartodb_id":104,"msha_id":1517741,"name":"Paradise #9","type_":"Underground","county":"Muhlenberg","unit":"short tons","tot_prod":1863259}},{"type":"Feature","geometry":{"type":"Point","coordinates":[-83.335005,37.064292]},"properties":{"cartodb_id":105,"msha_id":1517746,"name":"Thunder Ridge","type_":"Surface","county":"Leslie","unit":"short tons","tot_prod":106092}},{"type":"Feature","geometry":{"type":"Point","coordinates":[-84.054641,36.787039]},"properties":{"cartodb_id":106,"msha_id":1517871,"name":"Ghm #40","type_":"Surface","county":"Whitley","unit":"short tons","tot_prod":40387}},{"type":"Feature","geometry":{"type":"Point","coordinates":[-82.208055,37.449444]},"properties":{"cartodb_id":107,"msha_id":1517941,"name":"No 2","type_":"Surface","county":"Pike","unit":"short tons","tot_prod":53868}},{"type":"Feature","geometry":{"type":"Point","coordinates":[-82.252222,37.444722]},"properties":{"cartodb_id":108,"msha_id":1517979,"name":"Mine No. 8","type_":"Underground","county":"Pike","unit":"short tons","tot_prod":65928}},{"type":"Feature","geometry":{"type":"Point","coordinates":[-82.241389,37.444444]},"properties":{"cartodb_id":109,"msha_id":1517982,"name":"# 15","type_":"Underground","county":"Pike","unit":"short tons","tot_prod":31262}},{"type":"Feature","geometry":{"type":"Point","coordinates":[-82.224167,37.534722]},"properties":{"cartodb_id":110,"msha_id":1518001,"name":"Blackberry #1","type_":"Underground","county":"Pike","unit":"short tons","tot_prod":5648}},{"type":"Feature","geometry":{"type":"Point","coordinates":[-82.434444,37.588889]},"properties":{"cartodb_id":111,"msha_id":1518015,"name":"Bent Mountain","type_":"Surface","county":"Pike","unit":"short tons","tot_prod":125330}},{"type":"Feature","geometry":{"type":"Point","coordinates":[-82.429444,37.428333]},"properties":{"cartodb_id":112,"msha_id":1518029,"name":"No 2","type_":"Surface","county":"Pike","unit":"short tons","tot_prod":44598}},{"type":"Feature","geometry":{"type":"Point","coordinates":[-82.430138,37.428188]},"properties":{"cartodb_id":113,"msha_id":1518040,"name":"No. 6","type_":"Surface","county":"Pike","unit":"short tons","tot_prod":358768}},{"type":"Feature","geometry":{"type":"Point","coordinates":[-83.235857,37.395134]},"properties":{"cartodb_id":114,"msha_id":1518048,"name":"Rowdy Gap Mine","type_":"Surface","county":"Perry","unit":"short tons","tot_prod":308070}},{"type":"Feature","geometry":{"type":"Point","coordinates":[-82.992778,36.940278]},"properties":{"cartodb_id":115,"msha_id":1518198,"name":"D-11 Panther","type_":"Underground","county":"Harlan","unit":"short tons","tot_prod":66821}},{"type":"Feature","geometry":{"type":"Point","coordinates":[-83.45537,36.885388]},"properties":{"cartodb_id":116,"msha_id":1518247,"name":"Big Branch","type_":"Surface","county":"Harlan","unit":"short tons","tot_prod":317274}},{"type":"Feature","geometry":{"type":"Point","coordinates":[-83.597263,36.731448]},"properties":{"cartodb_id":117,"msha_id":1518257,"name":"#1 Strip Mine","type_":"Surface","county":"Bell","unit":"short tons","tot_prod":47314}},{"type":"Feature","geometry":{"type":"Point","coordinates":[-83.090313,36.911542]},"properties":{"cartodb_id":118,"msha_id":1518277,"name":"No. 3 Mine","type_":"Underground","county":"Harlan","unit":"short tons","tot_prod":133515}},{"type":"Feature","geometry":{"type":"Point","coordinates":[-82.023611,37.243611]},"properties":{"cartodb_id":119,"msha_id":1518280,"name":"S-1 Hunts Branch","type_":"Surface","county":"Pike","unit":"short tons","tot_prod":94938}},{"type":"Feature","geometry":{"type":"Point","coordinates":[-82.206111,37.464444]},"properties":{"cartodb_id":120,"msha_id":1518369,"name":"Black Pearl Mining Inc No 3","type_":"Underground","county":"Pike","unit":"short tons","tot_prod":17112}},{"type":"Feature","geometry":{"type":"Point","coordinates":[-83.398333,36.983056]},"properties":{"cartodb_id":121,"msha_id":1518376,"name":"D-2 Beechfork","type_":"Underground","county":"Leslie","unit":"short tons","tot_prod":138990}},{"type":"Feature","geometry":{"type":"Point","coordinates":[-86.905556,37.738333]},"properties":{"cartodb_id":122,"msha_id":1518418,"name":"Joe's Run","type_":"Surface","county":"Daviess","unit":"short tons","tot_prod":89927}},{"type":"Feature","geometry":{"type":"Point","coordinates":[-83.058884,37.674013]},"properties":{"cartodb_id":123,"msha_id":1518442,"name":"Auger Mine No 28","type_":"Surface","county":"Johnson","unit":"short tons","tot_prod":848}},{"type":"Feature","geometry":{"type":"Point","coordinates":[-83.903558,36.706377]},"properties":{"cartodb_id":124,"msha_id":1518466,"name":"F-M #4","type_":"Underground","county":"Whitley","unit":"short tons","tot_prod":91472}},{"type":"Feature","geometry":{"type":"Point","coordinates":[-83.059209,37.672242]},"properties":{"cartodb_id":125,"msha_id":1518538,"name":"Auger Mine No 34","type_":"Surface","county":"Johnson","unit":"short tons","tot_prod":11313}},{"type":"Feature","geometry":{"type":"Point","coordinates":[-83.153611,37.221667]},"properties":{"cartodb_id":126,"msha_id":1518565,"name":"E4-1","type_":"Underground","county":"Perry","unit":"short tons","tot_prod":25886}},{"type":"Feature","geometry":{"type":"Point","coordinates":[-82.637303,37.496794]},"properties":{"cartodb_id":127,"msha_id":1518574,"name":"No 2","type_":"Surface","county":"Floyd","unit":"short tons","tot_prod":39950}},{"type":"Feature","geometry":{"type":"Point","coordinates":[-82.651944,37.735833]},"properties":{"cartodb_id":128,"msha_id":1518575,"name":"No. 1","type_":"Underground","county":"Martin","unit":"short tons","tot_prod":594735}},{"type":"Feature","geometry":{"type":"Point","coordinates":[-82.235833,37.424444]},"properties":{"cartodb_id":129,"msha_id":1518626,"name":"Mine # 5","type_":"Underground","county":"Pike","unit":"short tons","tot_prod":51764}},{"type":"Feature","geometry":{"type":"Point","coordinates":[-82.966111,36.869722]},"properties":{"cartodb_id":130,"msha_id":1518647,"name":"Clover Fork No 1","type_":"Underground","county":"Harlan","unit":"short tons","tot_prod":436920}},{"type":"Feature","geometry":{"type":"Point","coordinates":[-82.116111,37.424167]},"properties":{"cartodb_id":131,"msha_id":1518713,"name":"No 009","type_":"Surface","county":"Buchanan","unit":"short tons","tot_prod":91586}},{"type":"Feature","geometry":{"type":"Point","coordinates":[-83.959346,36.6285]},"properties":{"cartodb_id":132,"msha_id":1518716,"name":"Hatfield Gap Surface Mine","type_":"Surface","county":"Whitley","unit":"short tons","tot_prod":34308}},{"type":"Feature","geometry":{"type":"Point","coordinates":[-82.833147,37.71994]},"properties":{"cartodb_id":133,"msha_id":1518730,"name":"M-119/M-102-Job-49","type_":"Surface","county":"Pike","unit":"short tons","tot_prod":20617}},{"type":"Feature","geometry":{"type":"Point","coordinates":[-82.173736,37.393845]},"properties":{"cartodb_id":134,"msha_id":1518737,"name":"Auger No. 29","type_":"Surface","county":"Pike","unit":"short tons","tot_prod":15927}},{"type":"Feature","geometry":{"type":"Point","coordinates":[-82.828889,37.047222]},"properties":{"cartodb_id":135,"msha_id":1518769,"name":"S-17 Cumberland","type_":"Surface","county":"Perry","unit":"short tons","tot_prod":485652}},{"type":"Feature","geometry":{"type":"Point","coordinates":[-82.413056,37.553611]},"properties":{"cartodb_id":136,"msha_id":1518775,"name":"Mine #15","type_":"Underground","county":"Pike","unit":"short tons","tot_prod":62941}},{"type":"Feature","geometry":{"type":"Point","coordinates":[-83.195556,37.295278]},"properties":{"cartodb_id":137,"msha_id":1518777,"name":"Hazard Job #6","type_":"Surface","county":"Perry","unit":"short tons","tot_prod":109932}},{"type":"Feature","geometry":{"type":"Point","coordinates":[-82.823611,37.824444]},"properties":{"cartodb_id":138,"msha_id":1518785,"name":"Mine #1","type_":"Surface","county":"Johnson","unit":"short tons","tot_prod":8}},{"type":"Feature","geometry":{"type":"Point","coordinates":[-81.865,37.736111]},"properties":{"cartodb_id":139,"msha_id":1518819,"name":"Shm-35 (Pounding Mill)","type_":"Surface","county":"Logan","unit":"short tons","tot_prod":113473}},{"type":"Feature","geometry":{"type":"Point","coordinates":[-87.439444,37.355]},"properties":{"cartodb_id":140,"msha_id":1518826,"name":"Elk Creek Mine","type_":"Underground","county":"Hopkins","unit":"short tons","tot_prod":441044}},{"type":"Feature","geometry":{"type":"Point","coordinates":[-83.038611,36.958056]},"properties":{"cartodb_id":141,"msha_id":1518869,"name":"Cvb No 1","type_":"Underground","county":"Harlan","unit":"short tons","tot_prod":32706}},{"type":"Feature","geometry":{"type":"Point","coordinates":[-81.496703,37.248269]},"properties":{"cartodb_id":142,"msha_id":1518890,"name":"Southeastern Auger No. 1","type_":"Surface","county":"Mcdowell","unit":"short tons","tot_prod":12777}},{"type":"Feature","geometry":{"type":"Point","coordinates":[-82.5425,37.343611]},"properties":{"cartodb_id":143,"msha_id":1518911,"name":"Mine #28","type_":"Underground","county":"Pike","unit":"short tons","tot_prod":174615}},{"type":"Feature","geometry":{"type":"Point","coordinates":[-82.614167,37.304167]},"properties":{"cartodb_id":144,"msha_id":1518914,"name":"Highwall Miner #1","type_":"Surface","county":"Perry","unit":"short tons","tot_prod":73354}},{"type":"Feature","geometry":{"type":"Point","coordinates":[-82.160555,37.426388]},"properties":{"cartodb_id":145,"msha_id":1518931,"name":"No 7","type_":"Surface","county":"Pike","unit":"short tons","tot_prod":414}},{"type":"Feature","geometry":{"type":"Point","coordinates":[-82.299298,37.31528]},"properties":{"cartodb_id":146,"msha_id":1518943,"name":"Mine No 5","type_":"Underground","county":"Pike","unit":"short tons","tot_prod":91671}},{"type":"Feature","geometry":{"type":"Point","coordinates":[-82.506444,37.492131]},"properties":{"cartodb_id":148,"msha_id":1518952,"name":"No 2","type_":"Surface","county":"Pike","unit":"short tons","tot_prod":3041}},{"type":"Feature","geometry":{"type":"Point","coordinates":[-83.164444,37.399444]},"properties":{"cartodb_id":149,"msha_id":1518966,"name":"East Mac & Nellie","type_":"Surface","county":"Perry","unit":"short tons","tot_prod":563262}},{"type":"Feature","geometry":{"type":"Point","coordinates":[-82.688056,37.472222]},"properties":{"cartodb_id":150,"msha_id":1518980,"name":"Frasure Branch","type_":"Surface","county":"Floyd","unit":"short tons","tot_prod":5295}},{"type":"Feature","geometry":{"type":"Point","coordinates":[-83.534722,37.345833]},"properties":{"cartodb_id":151,"msha_id":1518982,"name":"Sturgeon Freeman Fork","type_":"Surface","county":"Breathitt","unit":"short tons","tot_prod":78897}},{"type":"Feature","geometry":{"type":"Point","coordinates":[-82.091672,37.031435]},"properties":{"cartodb_id":152,"msha_id":1518988,"name":"Red Fox","type_":"Surface","county":"Letcher","unit":"short tons","tot_prod":22341}},{"type":"Feature","geometry":{"type":"Point","coordinates":[-84.103175,36.802237]},"properties":{"cartodb_id":153,"msha_id":1519002,"name":"Josie Mine #2","type_":"Surface","county":"Whitley","unit":"short tons","tot_prod":4085}},{"type":"Feature","geometry":{"type":"Point","coordinates":[-83.185278,37.230556]},"properties":{"cartodb_id":154,"msha_id":1519015,"name":"E4-2","type_":"Underground","county":"Perry","unit":"short tons","tot_prod":724524}},{"type":"Feature","geometry":{"type":"Point","coordinates":[-82.3625,37.466389]},"properties":{"cartodb_id":155,"msha_id":1519087,"name":"Mine #14","type_":"Underground","county":"Floyd","unit":"short tons","tot_prod":23367}},{"type":"Feature","geometry":{"type":"Point","coordinates":[-82.30774,37.308672]},"properties":{"cartodb_id":156,"msha_id":1519094,"name":"Center Creek Mine","type_":"Underground","county":"Pike","unit":"short tons","tot_prod":66254}},{"type":"Feature","geometry":{"type":"Point","coordinates":[-82.384167,37.665278]},"properties":{"cartodb_id":157,"msha_id":1519097,"name":"Process Energy","type_":"Underground","county":"Pike","unit":"short tons","tot_prod":467028}},{"type":"Feature","geometry":{"type":"Point","coordinates":[-82.972778,37.2025]},"properties":{"cartodb_id":158,"msha_id":1519116,"name":"Kingdom Coal #9","type_":"Underground","county":"Knott","unit":"short tons","tot_prod":393818}},{"type":"Feature","geometry":{"type":"Point","coordinates":[-83.255466,37.016009]},"properties":{"cartodb_id":160,"msha_id":1519161,"name":"S-28 Lewis Creek","type_":"Surface","county":"Leslie","unit":"short tons","tot_prod":172630}},{"type":"Feature","geometry":{"type":"Point","coordinates":[-83.919096,36.710424]},"properties":{"cartodb_id":161,"msha_id":1519187,"name":"Shm-10 (Maple Creek North)","type_":"Surface","county":"Knox","unit":"short tons","tot_prod":123366}},{"type":"Feature","geometry":{"type":"Point","coordinates":[-83.004167,37.258056]},"properties":{"cartodb_id":162,"msha_id":1519189,"name":"Yellow Creek #21","type_":"Surface","county":"Knott","unit":"short tons","tot_prod":91860}},{"type":"Feature","geometry":{"type":"Point","coordinates":[-82.824722,37.746389]},"properties":{"cartodb_id":163,"msha_id":1519226,"name":"S-22 Long Branch","type_":"Surface","county":"Johnson","unit":"short tons","tot_prod":5594}},{"type":"Feature","geometry":{"type":"Point","coordinates":[-82.733056,37.523611]},"properties":{"cartodb_id":164,"msha_id":1519242,"name":"Redhawk #1","type_":"Underground","county":"Floyd","unit":"short tons","tot_prod":75747}},{"type":"Feature","geometry":{"type":"Point","coordinates":[-83.056111,36.890833]},"properties":{"cartodb_id":165,"msha_id":1519260,"name":"No D-5a Mine","type_":"Underground","county":"Harlan","unit":"short tons","tot_prod":127239}},{"type":"Feature","geometry":{"type":"Point","coordinates":[-83.803333,36.635833]},"properties":{"cartodb_id":166,"msha_id":1519268,"name":"Mine #3","type_":"Surface","county":"Bell","unit":"short tons","tot_prod":86091}},{"type":"Feature","geometry":{"type":"Point","coordinates":[-83.892222,36.585278]},"properties":{"cartodb_id":167,"msha_id":1519272,"name":"Lowsplint Surface","type_":"Surface","county":"Bell","unit":"short tons","tot_prod":128066}},{"type":"Feature","geometry":{"type":"Point","coordinates":[-82.316705,37.306645]},"properties":{"cartodb_id":168,"msha_id":1519280,"name":"No 4","type_":"Underground","county":"Pike","unit":"short tons","tot_prod":70771}},{"type":"Feature","geometry":{"type":"Point","coordinates":[-83.879722,36.619722]},"properties":{"cartodb_id":169,"msha_id":1519318,"name":"D-1 Garmeada #2","type_":"Underground","county":"Bell","unit":"short tons","tot_prod":250476}},{"type":"Feature","geometry":{"type":"Point","coordinates":[-82.502222,37.490556]},"properties":{"cartodb_id":170,"msha_id":1519322,"name":"Ghm #25","type_":"Surface","county":"Knox","unit":"short tons","tot_prod":17048}},{"type":"Feature","geometry":{"type":"Point","coordinates":[-82.273889,37.431944]},"properties":{"cartodb_id":171,"msha_id":1519325,"name":"Mine No. 7","type_":"Underground","county":"Pike","unit":"short tons","tot_prod":123978}},{"type":"Feature","geometry":{"type":"Point","coordinates":[-87.097778,37.354167]},"properties":{"cartodb_id":172,"msha_id":1519344,"name":"Equality","type_":"Surface","county":"Ohio","unit":"short tons","tot_prod":1644701}},{"type":"Feature","geometry":{"type":"Point","coordinates":[-87.051944,37.291389]},"properties":{"cartodb_id":173,"msha_id":1519358,"name":"Parkway Mine","type_":"Underground","county":"Muhlenberg","unit":"short tons","tot_prod":474857}},{"type":"Feature","geometry":{"type":"Point","coordinates":[-87.888333,37.743055]},"properties":{"cartodb_id":174,"msha_id":1519374,"name":"River View Mine","type_":"Underground","county":"Union","unit":"short tons","tot_prod":8607528}},{"type":"Feature","geometry":{"type":"Point","coordinates":[-83.944001,36.871344]},"properties":{"cartodb_id":175,"msha_id":1519387,"name":"Elliott Branch","type_":"Surface","county":"Knox","unit":"short tons","tot_prod":16836}},{"type":"Feature","geometry":{"type":"Point","coordinates":[-82.048333,37.515]},"properties":{"cartodb_id":176,"msha_id":1519396,"name":"Persimmon #1","type_":"Surface","county":"Pike","unit":"short tons","tot_prod":69748}},{"type":"Feature","geometry":{"type":"Point","coordinates":[-83.039167,37.228333]},"properties":{"cartodb_id":177,"msha_id":1519400,"name":"No. 88","type_":"Underground","county":"Knott","unit":"short tons","tot_prod":1607}},{"type":"Feature","geometry":{"type":"Point","coordinates":[-83.111389,37.171667]},"properties":{"cartodb_id":178,"msha_id":1519405,"name":"Orchard Branch Mine No. 89","type_":"Underground","county":"Perry","unit":"short tons","tot_prod":550259}},{"type":"Feature","geometry":{"type":"Point","coordinates":[-82.978333,36.933889]},"properties":{"cartodb_id":179,"msha_id":1519418,"name":"D-8 Cloverlick","type_":"Underground","county":"Harlan","unit":"short tons","tot_prod":542676}},{"type":"Feature","geometry":{"type":"Point","coordinates":[-83.129215,37.342063]},"properties":{"cartodb_id":180,"msha_id":1519419,"name":"Noble Mine #2","type_":"Surface","county":"Perry","unit":"short tons","tot_prod":9348}},{"type":"Feature","geometry":{"type":"Point","coordinates":[-87.43913,37.63468]},"properties":{"cartodb_id":181,"msha_id":1519424,"name":"Riveredge Mine","type_":"Underground","county":"Mclean","unit":"short tons","tot_prod":1274873}},{"type":"Feature","geometry":{"type":"Point","coordinates":[-83.025,37.291667]},"properties":{"cartodb_id":182,"msha_id":1519437,"name":"S-14 Trace Fork","type_":"Surface","county":"Knott","unit":"short tons","tot_prod":194423}},{"type":"Feature","geometry":{"type":"Point","coordinates":[-83.348719,37.151813]},"properties":{"cartodb_id":183,"msha_id":1519441,"name":"Aces Branch Mine #9","type_":"Surface","county":"Leslie","unit":"short tons","tot_prod":94678}},{"type":"Feature","geometry":{"type":"Point","coordinates":[-83.05939,37.675689]},"properties":{"cartodb_id":184,"msha_id":1519459,"name":"Right Oakley Surface","type_":"Surface","county":"Magoffin","unit":"short tons","tot_prod":344489}},{"type":"Feature","geometry":{"type":"Point","coordinates":[-82.135,37.49]},"properties":{"cartodb_id":185,"msha_id":1519475,"name":"Beech Creek Surface Mine","type_":"Surface","county":"Pike","unit":"short tons","tot_prod":14928}},{"type":"Feature","geometry":{"type":"Point","coordinates":[-83.956783,36.850309]},"properties":{"cartodb_id":186,"msha_id":1519486,"name":"Alden Resources, Llc #6","type_":"Underground","county":"Knox","unit":"short tons","tot_prod":11089}},{"type":"Feature","geometry":{"type":"Point","coordinates":[-82.641111,37.711944]},"properties":{"cartodb_id":187,"msha_id":1519488,"name":"No. 25","type_":"Underground","county":"Floyd","unit":"short tons","tot_prod":290585}},{"type":"Feature","geometry":{"type":"Point","coordinates":[-82.297222,37.3675]},"properties":{"cartodb_id":188,"msha_id":1519501,"name":"Mine No 11","type_":"Underground","county":"Pike","unit":"short tons","tot_prod":98707}},{"type":"Feature","geometry":{"type":"Point","coordinates":[-86.993333,37.351389]},"properties":{"cartodb_id":189,"msha_id":1519511,"name":"Lewis Creek","type_":"Surface","county":"Ohio","unit":"short tons","tot_prod":944855}},{"type":"Feature","geometry":{"type":"Point","coordinates":[-82.413559,37.545392]},"properties":{"cartodb_id":190,"msha_id":1519515,"name":"Mine #4","type_":"Underground","county":"Pike","unit":"short tons","tot_prod":1204515}},{"type":"Feature","geometry":{"type":"Point","coordinates":[-87.066667,37.400278]},"properties":{"cartodb_id":191,"msha_id":1519535,"name":"Kronos Mine","type_":"Underground","county":"Ohio","unit":"short tons","tot_prod":2136725}},{"type":"Feature","geometry":{"type":"Point","coordinates":[-82.813889,37.923611]},"properties":{"cartodb_id":192,"msha_id":1519538,"name":"Job 5","type_":"Surface","county":"Johnson","unit":"short tons","tot_prod":86386}},{"type":"Feature","geometry":{"type":"Point","coordinates":[-82.143597,37.45032]},"properties":{"cartodb_id":193,"msha_id":1519544,"name":"No 9","type_":"Surface","county":"Pike","unit":"short tons","tot_prod":24549}},{"type":"Feature","geometry":{"type":"Point","coordinates":[-82.885102,37.922718]},"properties":{"cartodb_id":194,"msha_id":1519548,"name":"Surface #4","type_":"Surface","county":"Johnson","unit":"short tons","tot_prod":58262}},{"type":"Feature","geometry":{"type":"Point","coordinates":[-83.472898,36.717525]},"properties":{"cartodb_id":195,"msha_id":1519549,"name":"Pathfork","type_":"Surface","county":"Harlan","unit":"short tons","tot_prod":2316}},{"type":"Feature","geometry":{"type":"Point","coordinates":[-86.968477,37.410258]},"properties":{"cartodb_id":196,"msha_id":1519555,"name":"N.A.A.M. No. 21","type_":"Surface","county":"Daviess","unit":"short tons","tot_prod":25918}},{"type":"Feature","geometry":{"type":"Point","coordinates":[-82.878194,37.168397]},"properties":{"cartodb_id":197,"msha_id":1519577,"name":"No 3","type_":"Surface","county":"Letcher","unit":"short tons","tot_prod":11489}},{"type":"Feature","geometry":{"type":"Point","coordinates":[-82.355833,37.019167]},"properties":{"cartodb_id":198,"msha_id":1519585,"name":"Ghm #30","type_":"Surface","county":"Pike","unit":"short tons","tot_prod":10388}},{"type":"Feature","geometry":{"type":"Point","coordinates":[-82.73813,37.540318]},"properties":{"cartodb_id":199,"msha_id":1519588,"name":"Spurlock #4 Surface Mine","type_":"Surface","county":"Floyd","unit":"short tons","tot_prod":263184}},{"type":"Feature","geometry":{"type":"Point","coordinates":[-83.151667,37.160556]},"properties":{"cartodb_id":200,"msha_id":1519598,"name":"Poundmill Mine No 90","type_":"Underground","county":"Perry","unit":"short tons","tot_prod":88989}},{"type":"Feature","geometry":{"type":"Point","coordinates":[-83.052222,37.6825]},"properties":{"cartodb_id":201,"msha_id":1519606,"name":"M-119-Job-58","type_":"Surface","county":"Pike","unit":"short tons","tot_prod":27033}},{"type":"Feature","geometry":{"type":"Point","coordinates":[-84.053041,36.786773]},"properties":{"cartodb_id":202,"msha_id":1519614,"name":"Maple Creek Mine #1","type_":"Surface","county":"Whitley","unit":"short tons","tot_prod":20426}},{"type":"Feature","geometry":{"type":"Point","coordinates":[-82.726427,37.80902]},"properties":{"cartodb_id":203,"msha_id":1519644,"name":"Highwall Miner #12","type_":"Surface","county":"Whitley","unit":"short tons","tot_prod":8472}},{"type":"Feature","geometry":{"type":"Point","coordinates":[-83.50132,36.875607]},"properties":{"cartodb_id":204,"msha_id":1519645,"name":"S-27 Bluegrass","type_":"Surface","county":"Harlan","unit":"short tons","tot_prod":19733}},{"type":"Feature","geometry":{"type":"Point","coordinates":[-86.893889,37.756111]},"properties":{"cartodb_id":205,"msha_id":1519657,"name":"North Knottsville Mine","type_":"Surface","county":"Daviess","unit":"short tons","tot_prod":104995}},{"type":"Feature","geometry":{"type":"Point","coordinates":[-82.58919,37.953444]},"properties":{"cartodb_id":206,"msha_id":1519660,"name":"No. 7","type_":"Surface","county":"Lawrence","unit":"short tons","tot_prod":130945}},{"type":"Feature","geometry":{"type":"Point","coordinates":[-83.944012,36.871215]},"properties":{"cartodb_id":207,"msha_id":1519663,"name":"Ghm #56","type_":"Surface","county":"Whitley","unit":"short tons","tot_prod":24100}},{"type":"Feature","geometry":{"type":"Point","coordinates":[-82.720026,37.81245]},"properties":{"cartodb_id":208,"msha_id":1519678,"name":"Jc-1","type_":"Surface","county":"Johnson","unit":"short tons","tot_prod":45742}},{"type":"Feature","geometry":{"type":"Point","coordinates":[-82.589722,37.199444]},"properties":{"cartodb_id":209,"msha_id":1519681,"name":"01","type_":"Surface","county":"Letcher","unit":"short tons","tot_prod":13685}},{"type":"Feature","geometry":{"type":"Point","coordinates":[-86.986944,37.580555]},"properties":{"cartodb_id":210,"msha_id":1519683,"name":"P.Ridge Mine-South Pit","type_":"Surface","county":"Ohio","unit":"short tons","tot_prod":15985}},{"type":"Feature","geometry":{"type":"Point","coordinates":[-82.437228,37.4352]},"properties":{"cartodb_id":211,"msha_id":1519689,"name":"No 24","type_":"Surface","county":"Pike","unit":"short tons","tot_prod":64714}},{"type":"Feature","geometry":{"type":"Point","coordinates":[-84.012894,36.813767]},"properties":{"cartodb_id":213,"msha_id":1519696,"name":"Flat Creek Mine","type_":"Surface","county":"Knox","unit":"short tons","tot_prod":81376}},{"type":"Feature","geometry":{"type":"Point","coordinates":[-83.501667,36.872222]},"properties":{"cartodb_id":214,"msha_id":1519700,"name":"S-26 Stoney Fork","type_":"Surface","county":"Bell","unit":"short tons","tot_prod":14384}},{"type":"Feature","geometry":{"type":"Point","coordinates":[-83.5775,36.803611]},"properties":{"cartodb_id":215,"msha_id":1519702,"name":"Rockhampton #3","type_":"Underground","county":"Bell","unit":"short tons","tot_prod":286593}},{"type":"Feature","geometry":{"type":"Point","coordinates":[-82.738852,37.529781]},"properties":{"cartodb_id":216,"msha_id":1519718,"name":"Redhawk #6","type_":"Underground","county":"Floyd","unit":"short tons","tot_prod":137322}},{"type":"Feature","geometry":{"type":"Point","coordinates":[-82.143315,37.449693]},"properties":{"cartodb_id":217,"msha_id":1519722,"name":"No. 11 Allen Branch Job","type_":"Surface","county":"Pike","unit":"short tons","tot_prod":41892}},{"type":"Feature","geometry":{"type":"Point","coordinates":[-82.651944,37.448611]},"properties":{"cartodb_id":218,"msha_id":1519726,"name":"No. 4","type_":"Underground","county":"Floyd","unit":"short tons","tot_prod":69073}},{"type":"Feature","geometry":{"type":"Point","coordinates":[-82.406389,37.740833]},"properties":{"cartodb_id":219,"msha_id":1519730,"name":"S-18 Seng Branch","type_":"Surface","county":"Martin","unit":"short tons","tot_prod":59728}},{"type":"Feature","geometry":{"type":"Point","coordinates":[-82.543994,37.290987]},"properties":{"cartodb_id":220,"msha_id":1519735,"name":"Highwall Miner #2","type_":"Surface","county":"Bell","unit":"short tons","tot_prod":85728}},{"type":"Feature","geometry":{"type":"Point","coordinates":[-82.467222,37.050278]},"properties":{"cartodb_id":221,"msha_id":1519736,"name":"M-107","type_":"Surface","county":"Dickenson","unit":"short tons","tot_prod":42324}},{"type":"Feature","geometry":{"type":"Point","coordinates":[-83.435278,36.758333]},"properties":{"cartodb_id":222,"msha_id":1519737,"name":"D-5","type_":"Underground","county":"Harlan","unit":"short tons","tot_prod":134859}},{"type":"Feature","geometry":{"type":"Point","coordinates":[-82.877606,37.166647]},"properties":{"cartodb_id":223,"msha_id":1519738,"name":"Auger 84","type_":"Surface","county":"Letcher","unit":"short tons","tot_prod":1950}},{"type":"Feature","geometry":{"type":"Point","coordinates":[-87.051667,37.291389]},"properties":{"cartodb_id":224,"msha_id":1519744,"name":"Survant","type_":"Underground","county":"Muhlenberg","unit":"short tons","tot_prod":687671}},{"type":"Feature","geometry":{"type":"Point","coordinates":[-82.821111,37.763333]},"properties":{"cartodb_id":225,"msha_id":1519748,"name":"Jf Aml Stabilization And Recla","type_":"Surface","county":"Johnson","unit":"short tons","tot_prod":5173}},{"type":"Feature","geometry":{"type":"Point","coordinates":[-83.228056,36.750556]},"properties":{"cartodb_id":226,"msha_id":1519757,"name":"Day Branch","type_":"Surface","county":"Harlan","unit":"short tons","tot_prod":310980}},{"type":"Feature","geometry":{"type":"Point","coordinates":[-82.683734,37.253472]},"properties":{"cartodb_id":227,"msha_id":1519760,"name":"Job #58","type_":"Surface","county":"Pike","unit":"short tons","tot_prod":806}},{"type":"Feature","geometry":{"type":"Point","coordinates":[-83.539596,37.352111]},"properties":{"cartodb_id":228,"msha_id":1519762,"name":"Ghm #19","type_":"Surface","county":"Laurel","unit":"short tons","tot_prod":3292}},{"type":"Feature","geometry":{"type":"Point","coordinates":[-83.530556,37.3825]},"properties":{"cartodb_id":229,"msha_id":1519765,"name":"Breathitt #1","type_":"Surface","county":"Breathitt","unit":"short tons","tot_prod":418}},{"type":"Feature","geometry":{"type":"Point","coordinates":[-83.544722,36.725278]},"properties":{"cartodb_id":230,"msha_id":1519768,"name":"Jennie Branch Mine","type_":"Underground","county":"Bell","unit":"short tons","tot_prod":156198}},{"type":"Feature","geometry":{"type":"Point","coordinates":[-82.885278,37.156389]},"properties":{"cartodb_id":231,"msha_id":1519770,"name":"No. 4","type_":"Surface","county":"Letcher","unit":"short tons","tot_prod":7330}},{"type":"Feature","geometry":{"type":"Point","coordinates":[-82.160556,37.426389]},"properties":{"cartodb_id":232,"msha_id":1519775,"name":"7","type_":"Underground","county":"Pike","unit":"short tons","tot_prod":20284}},{"type":"Feature","geometry":{"type":"Point","coordinates":[-83.145278,37.227778]},"properties":{"cartodb_id":233,"msha_id":1519778,"name":"Upper Second Creek Mine","type_":"Surface","county":"Perry","unit":"short tons","tot_prod":161587}},{"type":"Feature","geometry":{"type":"Point","coordinates":[-84.093333,36.861944]},"properties":{"cartodb_id":234,"msha_id":1519779,"name":"Steele Hollow Mine","type_":"Surface","county":"Whitley","unit":"short tons","tot_prod":6263}},{"type":"Feature","geometry":{"type":"Point","coordinates":[-83.285,37.352778]},"properties":{"cartodb_id":235,"msha_id":1519780,"name":"Wiley Miller Mine","type_":"Surface","county":"Perry","unit":"short tons","tot_prod":43268}},{"type":"Feature","geometry":{"type":"Point","coordinates":[-82.2175,37.375833]},"properties":{"cartodb_id":236,"msha_id":1519784,"name":"Hackney Creek Splashdam","type_":"Underground","county":"Pike","unit":"short tons","tot_prod":11331}},{"type":"Feature","geometry":{"type":"Point","coordinates":[-84.065,36.816667]},"properties":{"cartodb_id":237,"msha_id":1519788,"name":"Maple Creek North","type_":"Surface","county":"Whitley","unit":"short tons","tot_prod":19019}},{"type":"Feature","geometry":{"type":"Point","coordinates":[-82.743611,37.122778]},"properties":{"cartodb_id":238,"msha_id":1519790,"name":"Letcher 1","type_":"Surface","county":"Letcher","unit":"short tons","tot_prod":697}},{"type":"Feature","geometry":{"type":"Point","coordinates":[-83.874444,36.617778]},"properties":{"cartodb_id":239,"msha_id":1519791,"name":"D-1a Garmeada","type_":"Underground","county":"Bell","unit":"short tons","tot_prod":35530}},{"type":"Feature","geometry":{"type":"Point","coordinates":[-84.018062,36.815313]},"properties":{"cartodb_id":240,"msha_id":1519792,"name":"Hubbs Holllow","type_":"Surface","county":"Whitley","unit":"short tons","tot_prod":39350}},{"type":"Feature","geometry":{"type":"Point","coordinates":[-83.236389,37.048889]},"properties":{"cartodb_id":241,"msha_id":1519796,"name":"Spruce Pine","type_":"Surface","county":"Harlan","unit":"short tons","tot_prod":106335}},{"type":"Feature","geometry":{"type":"Point","coordinates":[-87.375833,37.331111]},"properties":{"cartodb_id":242,"msha_id":1519797,"name":"Fies Slurry Recovery","type_":"Surface","county":"Hopkins","unit":"short tons","tot_prod":13043}},{"type":"Feature","geometry":{"type":"Point","coordinates":[-82.981944,36.967778]},"properties":{"cartodb_id":243,"msha_id":1519798,"name":"S-29 Cave Branch","type_":"Surface","county":"Harlan","unit":"short tons","tot_prod":107891}},{"type":"Feature","geometry":{"type":"Point","coordinates":[-82.174167,37.393611]},"properties":{"cartodb_id":244,"msha_id":1519799,"name":"Fedscreek Surface","type_":"Surface","county":"Pike","unit":"short tons","tot_prod":24152}},{"type":"Feature","geometry":{"type":"Point","coordinates":[-93.475,31.96]},"properties":{"cartodb_id":245,"msha_id":1601031,"name":"Dolet Hills Lignite Company","type_":"Surface","county":"De Soto","unit":"short tons","tot_prod":2535448}},{"type":"Feature","geometry":{"type":"Point","coordinates":[-92.969177,32.16396]},"properties":{"cartodb_id":246,"msha_id":1601499,"name":"Five Forks Mine","type_":"Surface","county":"Natchitoches","unit":"short tons","tot_prod":262208}},{"type":"Feature","geometry":{"type":"Point","coordinates":[-78.918333,39.613611]},"properties":{"cartodb_id":247,"msha_id":1800133,"name":"Cabin Run","type_":"Surface","county":"Allegany","unit":"short tons","tot_prod":223635}},{"type":"Feature","geometry":{"type":"Point","coordinates":[-79.175,39.4]},"properties":{"cartodb_id":248,"msha_id":1800372,"name":"No 1 Strip","type_":"Surface","county":"Garrett","unit":"short tons","tot_prod":36937}},{"type":"Feature","geometry":{"type":"Point","coordinates":[-78.969722,39.584722]},"properties":{"cartodb_id":249,"msha_id":1800391,"name":"No 1 Strip","type_":"Surface","county":"Allegany","unit":"short tons","tot_prod":75925}},{"type":"Feature","geometry":{"type":"Point","coordinates":[-79.005,39.526111]},"properties":{"cartodb_id":250,"msha_id":1800529,"name":"Cobra No 1","type_":"Surface","county":"Allegany","unit":"short tons","tot_prod":31880}},{"type":"Feature","geometry":{"type":"Point","coordinates":[-79.008333,39.586111]},"properties":{"cartodb_id":251,"msha_id":1800630,"name":"#1 Strip","type_":"Surface","county":"Garrett","unit":"short tons","tot_prod":4843}},{"type":"Feature","geometry":{"type":"Point","coordinates":[-79.04803,39.542146]},"properties":{"cartodb_id":252,"msha_id":1800713,"name":"Job #3","type_":"Surface","county":"Allegany","unit":"short tons","tot_prod":175501}},{"type":"Feature","geometry":{"type":"Point","coordinates":[-79.030556,39.521389]},"properties":{"cartodb_id":253,"msha_id":1800748,"name":"Taylor # 1","type_":"Underground","county":"Allegany","unit":"short tons","tot_prod":189805}},{"type":"Feature","geometry":{"type":"Point","coordinates":[-79.9,39.188889]},"properties":{"cartodb_id":254,"msha_id":1800752,"name":"Federal Hill Mine","type_":"Surface","county":"Allegany","unit":"short tons","tot_prod":59550}},{"type":"Feature","geometry":{"type":"Point","coordinates":[-78.905039,39.609992]},"properties":{"cartodb_id":255,"msha_id":1800760,"name":"No. 1 Mine","type_":"Surface","county":"Allegany","unit":"short tons","tot_prod":5420}},{"type":"Feature","geometry":{"type":"Point","coordinates":[-79.06146,39.495331]},"properties":{"cartodb_id":256,"msha_id":1800765,"name":"No. 1 Surface","type_":"Surface","county":"Garrett","unit":"short tons","tot_prod":57207}},{"type":"Feature","geometry":{"type":"Point","coordinates":[-78.962777,39.618055]},"properties":{"cartodb_id":257,"msha_id":1800769,"name":"Carlos Surface","type_":"Surface","county":"Allegany","unit":"short tons","tot_prod":108673}},{"type":"Feature","geometry":{"type":"Point","coordinates":[-79.975898,39.629073]},"properties":{"cartodb_id":258,"msha_id":1800776,"name":"No. 1 Surface","type_":"Surface","county":"Allegany","unit":"short tons","tot_prod":44829}},{"type":"Feature","geometry":{"type":"Point","coordinates":[-78.993598,39.520067]},"properties":{"cartodb_id":259,"msha_id":1800777,"name":"Jackson","type_":"Surface","county":"Allegany","unit":"short tons","tot_prod":29879}},{"type":"Feature","geometry":{"type":"Point","coordinates":[-79.201865,39.667108]},"properties":{"cartodb_id":260,"msha_id":1800780,"name":"Casselman Mine","type_":"Underground","county":"Garrett","unit":"short tons","tot_prod":518982}},{"type":"Feature","geometry":{"type":"Point","coordinates":[-79.244167,39.423611]},"properties":{"cartodb_id":261,"msha_id":1800790,"name":"Wolf Den Run Mine","type_":"Surface","county":"Garrett","unit":"short tons","tot_prod":21053}},{"type":"Feature","geometry":{"type":"Point","coordinates":[-79.513224,39.10578]},"properties":{"cartodb_id":262,"msha_id":1800794,"name":"Taylor Highwall Mine","type_":"Surface","county":"Garrett","unit":"short tons","tot_prod":28688}},{"type":"Feature","geometry":{"type":"Point","coordinates":[-89.201141,33.795927]},"properties":{"cartodb_id":263,"msha_id":2200690,"name":"Red Hills Mine","type_":"Surface","county":"Choctaw","unit":"short tons","tot_prod":2766091}},{"type":"Feature","geometry":{"type":"Point","coordinates":[-88.756944,32.638611]},"properties":{"cartodb_id":264,"msha_id":2200803,"name":"Liberty Mine","type_":"Surface","county":"Kemper","unit":"short tons","tot_prod":103649}},{"type":"Feature","geometry":{"type":"Point","coordinates":[-94.6,38.166666]},"properties":{"cartodb_id":265,"msha_id":2302262,"name":"Foster South","type_":"Surface","county":"Bates","unit":"short tons","tot_prod":233898}},{"type":"Feature","geometry":{"type":"Point","coordinates":[-104.375,47.416389]},"properties":{"cartodb_id":266,"msha_id":2400106,"name":"Savage Mine","type_":"Surface","county":"Richland","unit":"short tons","tot_prod":309144}},{"type":"Feature","geometry":{"type":"Point","coordinates":[-106.831111,45.037778]},"properties":{"cartodb_id":267,"msha_id":2400839,"name":"Decker Mine","type_":"Surface","county":"Big Horn","unit":"short tons","tot_prod":3202363}},{"type":"Feature","geometry":{"type":"Point","coordinates":[-107.590223,45.72957]},"properties":{"cartodb_id":268,"msha_id":2400910,"name":"Absaloka Mine","type_":"Surface","county":"Big Horn","unit":"short tons","tot_prod":4157548}},{"type":"Feature","geometry":{"type":"Point","coordinates":[-106.750278,45.358333]},"properties":{"cartodb_id":269,"msha_id":2401457,"name":"Spring Creek Coal Company","type_":"Surface","county":"Big Horn","unit":"short tons","tot_prod":10245081}},{"type":"Feature","geometry":{"type":"Point","coordinates":[-106.6517,45.879153]},"properties":{"cartodb_id":270,"msha_id":2401747,"name":"Rosebud Mine&crusher/Conveyor","type_":"Surface","county":"Rosebud","unit":"short tons","tot_prod":8812478}},{"type":"Feature","geometry":{"type":"Point","coordinates":[-108.705589,46.446959]},"properties":{"cartodb_id":271,"msha_id":2401950,"name":"Bull Mountains Mine No 1","type_":"Underground","county":"Musselshell","unit":"short tons","tot_prod":5609042}},{"type":"Feature","geometry":{"type":"Point","coordinates":[-108.541944,36.525]},"properties":{"cartodb_id":272,"msha_id":2900097,"name":"Navajo Mine","type_":"Surface","county":"San Juan","unit":"short tons","tot_prod":4107436}},{"type":"Feature","geometry":{"type":"Point","coordinates":[-108.375,36.85]},"properties":{"cartodb_id":273,"msha_id":2902170,"name":"San Juan Mine 1","type_":"Underground","county":"San Juan","unit":"short tons","tot_prod":4330717}},{"type":"Feature","geometry":{"type":"Point","coordinates":[-108.65,34.6]},"properties":{"cartodb_id":274,"msha_id":2902257,"name":"El Segundo","type_":"Surface","county":"Mckinley","unit":"short tons","tot_prod":4902936}},{"type":"Feature","geometry":{"type":"Point","coordinates":[-101.25,47.534444]},"properties":{"cartodb_id":275,"msha_id":3200043,"name":"Beulah Mine","type_":"Surface","county":"Mercer","unit":"short tons","tot_prod":879238}},{"type":"Feature","geometry":{"type":"Point","coordinates":[-101.212778,47.064722]},"properties":{"cartodb_id":276,"msha_id":3200218,"name":"Center Mine","type_":"Surface","county":"Oliver","unit":"short tons","tot_prod":4296307}},{"type":"Feature","geometry":{"type":"Point","coordinates":[-101.69132,47.127145]},"properties":{"cartodb_id":277,"msha_id":3200491,"name":"Falkirk Mine","type_":"Surface","county":"Mclean","unit":"short tons","tot_prod":7248542}},{"type":"Feature","geometry":{"type":"Point","coordinates":[-101.233889,47.5]},"properties":{"cartodb_id":278,"msha_id":3200595,"name":"Freedom Mine","type_":"Surface","county":"Mercer","unit":"short tons","tot_prod":14109960}},{"type":"Feature","geometry":{"type":"Point","coordinates":[-101.882798,47.167275]},"properties":{"cartodb_id":279,"msha_id":3201028,"name":"Coyote Creek Mine","type_":"Surface","county":"Mercer","unit":"short tons","tot_prod":1586812}},{"type":"Feature","geometry":{"type":"Point","coordinates":[-81.193686,40.008717]},"properties":{"cartodb_id":280,"msha_id":3300965,"name":"Rice #1 (Strip)","type_":"Surface","county":"Belmont","unit":"short tons","tot_prod":332541}},{"type":"Feature","geometry":{"type":"Point","coordinates":[-80.919444,40.347222]},"properties":{"cartodb_id":281,"msha_id":3300968,"name":"Hopedale Mine","type_":"Underground","county":"Harrison","unit":"short tons","tot_prod":351195}},{"type":"Feature","geometry":{"type":"Point","coordinates":[-81.010278,39.59]},"properties":{"cartodb_id":282,"msha_id":3301070,"name":"Century Mine","type_":"Underground","county":"Monroe","unit":"short tons","tot_prod":4983672}},{"type":"Feature","geometry":{"type":"Point","coordinates":[-80.983056,39.914722]},"properties":{"cartodb_id":283,"msha_id":3301159,"name":"Powhatan No. 6 Mine","type_":"Underground","county":"Belmont","unit":"short tons","tot_prod":2815831}},{"type":"Feature","geometry":{"type":"Point","coordinates":[-82.401667,39.116389]},"properties":{"cartodb_id":284,"msha_id":3301358,"name":"Sands Hill Strip","type_":"Surface","county":"Vinton","unit":"short tons","tot_prod":112428}},{"type":"Feature","geometry":{"type":"Point","coordinates":[-81.474285,39.651864]},"properties":{"cartodb_id":285,"msha_id":3301925,"name":"Orange Strip","type_":"Surface","county":"Noble","unit":"short tons","tot_prod":439556}},{"type":"Feature","geometry":{"type":"Point","coordinates":[-82.435556,39.115278]},"properties":{"cartodb_id":286,"msha_id":3303336,"name":"Sands Hill Strip #2","type_":"Surface","county":"Jackson","unit":"short tons","tot_prod":42447}},{"type":"Feature","geometry":{"type":"Point","coordinates":[-81.463186,40.520238]},"properties":{"cartodb_id":287,"msha_id":3304109,"name":"Kimble #1","type_":"Surface","county":"Tuscarawas","unit":"short tons","tot_prod":44408}},{"type":"Feature","geometry":{"type":"Point","coordinates":[-81.556195,40.400178]},"properties":{"cartodb_id":288,"msha_id":3304179,"name":"Tuscarawas Strip","type_":"Surface","county":"Tuscarawas","unit":"short tons","tot_prod":455769}},{"type":"Feature","geometry":{"type":"Point","coordinates":[-82.157122,39.730378]},"properties":{"cartodb_id":289,"msha_id":3304336,"name":"Oxford Mining #3","type_":"Surface","county":"Perry","unit":"short tons","tot_prod":390371}},{"type":"Feature","geometry":{"type":"Point","coordinates":[-80.969586,40.166005]},"properties":{"cartodb_id":290,"msha_id":3304414,"name":"Snyder Mine","type_":"Surface","county":"Harrison","unit":"short tons","tot_prod":979804}},{"type":"Feature","geometry":{"type":"Point","coordinates":[-80.970195,40.519198]},"properties":{"cartodb_id":291,"msha_id":3304484,"name":"Kimble Strips","type_":"Surface","county":"Harrison","unit":"short tons","tot_prod":5408}},{"type":"Feature","geometry":{"type":"Point","coordinates":[-81.490556,40.323889]},"properties":{"cartodb_id":292,"msha_id":3304509,"name":"Tusky","type_":"Underground","county":"Tuscarawas","unit":"short tons","tot_prod":36799}},{"type":"Feature","geometry":{"type":"Point","coordinates":[-82.065,39.586667]},"properties":{"cartodb_id":293,"msha_id":3304526,"name":"Buckingham  Mine #6","type_":"Underground","county":"Perry","unit":"short tons","tot_prod":710983}},{"type":"Feature","geometry":{"type":"Point","coordinates":[-80.840556,40.511389]},"properties":{"cartodb_id":294,"msha_id":3304565,"name":"Bergholz 7","type_":"Underground","county":"Jefferson","unit":"short tons","tot_prod":92519}},{"type":"Feature","geometry":{"type":"Point","coordinates":[-80.999143,40.235909]},"properties":{"cartodb_id":295,"msha_id":3304577,"name":"Sexton 2 Pit","type_":"Surface","county":"Harrison","unit":"short tons","tot_prod":464230}},{"type":"Feature","geometry":{"type":"Point","coordinates":[-80.587962,40.557938]},"properties":{"cartodb_id":296,"msha_id":3304591,"name":"Shean Hill Mine","type_":"Underground","county":"Jefferson","unit":"short tons","tot_prod":18994}},{"type":"Feature","geometry":{"type":"Point","coordinates":[-80.891111,40.580833]},"properties":{"cartodb_id":297,"msha_id":3304605,"name":"Carroll Hollow #6","type_":"Underground","county":"Carroll","unit":"short tons","tot_prod":22796}},{"type":"Feature","geometry":{"type":"Point","coordinates":[-81.293736,40.211505]},"properties":{"cartodb_id":298,"msha_id":3304645,"name":"Vail Mine","type_":"Underground","county":"Harrison","unit":"short tons","tot_prod":264378}},{"type":"Feature","geometry":{"type":"Point","coordinates":[-95.937248,35.502666]},"properties":{"cartodb_id":299,"msha_id":3401062,"name":"Joshua Coal Company","type_":"Surface","county":"Okmulgee","unit":"short tons","tot_prod":946}},{"type":"Feature","geometry":{"type":"Point","coordinates":[-94.765,34.951666]},"properties":{"cartodb_id":300,"msha_id":3402076,"name":"Bull Hill","type_":"Surface","county":"Le Flore","unit":"short tons","tot_prod":126320}},{"type":"Feature","geometry":{"type":"Point","coordinates":[-94.546667,35.222222]},"properties":{"cartodb_id":301,"msha_id":3402080,"name":"P8 North","type_":"Underground","county":"Le Flore","unit":"short tons","tot_prod":383668}},{"type":"Feature","geometry":{"type":"Point","coordinates":[-95.441666,36.668055]},"properties":{"cartodb_id":302,"msha_id":3402081,"name":"H & H","type_":"Surface","county":"Nowata","unit":"short tons","tot_prod":143286}},{"type":"Feature","geometry":{"type":"Point","coordinates":[-78.169917,41.111073]},"properties":{"cartodb_id":303,"msha_id":3600884,"name":"River Hill Coal Co., Inc.","type_":"Surface","county":"Clearfield","unit":"short tons","tot_prod":40194}},{"type":"Feature","geometry":{"type":"Point","coordinates":[-78.659167,41.082222]},"properties":{"cartodb_id":304,"msha_id":3601241,"name":"Rockton/Shaffer Mine","type_":"Surface","county":"Clearfield","unit":"short tons","tot_prod":44800}},{"type":"Feature","geometry":{"type":"Point","coordinates":[-78.688067,41.195188]},"properties":{"cartodb_id":305,"msha_id":3601262,"name":"Tamburlin Strip","type_":"Surface","county":"Elk","unit":"short tons","tot_prod":938}},{"type":"Feature","geometry":{"type":"Point","coordinates":[-75.929086,40.82419]},"properties":{"cartodb_id":306,"msha_id":3601734,"name":"Jeddo Basin (J-44)","type_":"Surface","county":"Luzerne","unit":"short tons","tot_prod":3342}},{"type":"Feature","geometry":{"type":"Point","coordinates":[-75.977771,40.804775]},"properties":{"cartodb_id":307,"msha_id":3601761,"name":"Tamaqua Mine","type_":"Surface","county":"Schuylkill","unit":"short tons","tot_prod":212320}},{"type":"Feature","geometry":{"type":"Point","coordinates":[-76.235833,40.666944]},"properties":{"cartodb_id":308,"msha_id":3601818,"name":"R S & W Drift","type_":"Underground","county":"Schuylkill","unit":"short tons","tot_prod":15108}},{"type":"Feature","geometry":{"type":"Point","coordinates":[-76.1675,40.714166]},"properties":{"cartodb_id":309,"msha_id":3601877,"name":"K K Strip","type_":"Surface","county":"Schuylkill","unit":"short tons","tot_prod":7863}},{"type":"Feature","geometry":{"type":"Point","coordinates":[-76.304166,40.715]},"properties":{"cartodb_id":310,"msha_id":3601965,"name":"Buck Run P-8 P-10","type_":"Surface","county":"Schuylkill","unit":"short tons","tot_prod":27025}},{"type":"Feature","geometry":{"type":"Point","coordinates":[-76.212222,40.718056]},"properties":{"cartodb_id":311,"msha_id":3601977,"name":"Wadesville P-33","type_":"Surface","county":"Schuylkill","unit":"short tons","tot_prod":45939}},{"type":"Feature","geometry":{"type":"Point","coordinates":[-76.650848,40.768307]},"properties":{"cartodb_id":312,"msha_id":3602203,"name":"N & L Slope","type_":"Underground","county":"Northumberland","unit":"short tons","tot_prod":6843}},{"type":"Feature","geometry":{"type":"Point","coordinates":[-79.800341,39.994734]},"properties":{"cartodb_id":361,"msha_id":3608505,"name":"Waltersburg Mine","type_":"Surface","county":"Fayette","unit":"short tons","tot_prod":962}},{"type":"Feature","geometry":{"type":"Point","coordinates":[-76.178333,40.808333]},"properties":{"cartodb_id":313,"msha_id":3602234,"name":"Ellangowan Bank #45","type_":"Surface","county":"Schuylkill","unit":"short tons","tot_prod":1431}},{"type":"Feature","geometry":{"type":"Point","coordinates":[-77.352489,41.465476]},"properties":{"cartodb_id":314,"msha_id":3602703,"name":"Fisher Mining Company","type_":"Surface","county":"Lycoming","unit":"short tons","tot_prod":173232}},{"type":"Feature","geometry":{"type":"Point","coordinates":[-78.375075,40.859491]},"properties":{"cartodb_id":315,"msha_id":3602733,"name":"Kasubick #4","type_":"Surface","county":"Clearfield","unit":"short tons","tot_prod":6321}},{"type":"Feature","geometry":{"type":"Point","coordinates":[-78.982778,39.971667]},"properties":{"cartodb_id":316,"msha_id":3603328,"name":"Mine No 1","type_":"Surface","county":"Somerset","unit":"short tons","tot_prod":4133}},{"type":"Feature","geometry":{"type":"Point","coordinates":[-78.803695,40.926038]},"properties":{"cartodb_id":317,"msha_id":3603561,"name":"Mcclure Strip","type_":"Surface","county":"Jefferson","unit":"short tons","tot_prod":143812}},{"type":"Feature","geometry":{"type":"Point","coordinates":[-75.983056,40.991667]},"properties":{"cartodb_id":318,"msha_id":3604383,"name":"Lattimer Division","type_":"Surface","county":"Luzerne","unit":"short tons","tot_prod":43236}},{"type":"Feature","geometry":{"type":"Point","coordinates":[-79.975424,40.9378]},"properties":{"cartodb_id":319,"msha_id":3604782,"name":"Worthville Mine","type_":"Surface","county":"Jefferson","unit":"short tons","tot_prod":25801}},{"type":"Feature","geometry":{"type":"Point","coordinates":[-79.972685,39.795583]},"properties":{"cartodb_id":320,"msha_id":3605018,"name":"Cumberland Mine","type_":"Underground","county":"Greene","unit":"short tons","tot_prod":6959706}},{"type":"Feature","geometry":{"type":"Point","coordinates":[-79.514137,41.274639]},"properties":{"cartodb_id":321,"msha_id":3605208,"name":"Ancient Sun Strip Saylor-Mckin","type_":"Surface","county":"Clarion","unit":"short tons","tot_prod":5880}},{"type":"Feature","geometry":{"type":"Point","coordinates":[-78.10249,41.152389]},"properties":{"cartodb_id":322,"msha_id":3605493,"name":"Reese No 1 & 2 Strip","type_":"Surface","county":"Clearfield","unit":"short tons","tot_prod":2165}},{"type":"Feature","geometry":{"type":"Point","coordinates":[-79.758356,39.140468]},"properties":{"cartodb_id":323,"msha_id":3606393,"name":"Wymps Gap Surface Coal Mine","type_":"Surface","county":"Fayette","unit":"short tons","tot_prod":2596}},{"type":"Feature","geometry":{"type":"Point","coordinates":[-79.204722,41.120556]},"properties":{"cartodb_id":324,"msha_id":3606562,"name":"Reichard Strips","type_":"Surface","county":"Jefferson","unit":"short tons","tot_prod":57138}},{"type":"Feature","geometry":{"type":"Point","coordinates":[-78.475407,40.975762]},"properties":{"cartodb_id":325,"msha_id":3606586,"name":"Waroquier #1","type_":"Surface","county":"Clearfield","unit":"short tons","tot_prod":44837}},{"type":"Feature","geometry":{"type":"Point","coordinates":[-79.503574,40.235149]},"properties":{"cartodb_id":326,"msha_id":3606753,"name":"Coal Loaders, Inc.","type_":"Surface","county":"Westmoreland","unit":"short tons","tot_prod":74373}},{"type":"Feature","geometry":{"type":"Point","coordinates":[-75.805363,41.292003]},"properties":{"cartodb_id":327,"msha_id":3607079,"name":"Shantytown Strip Mine","type_":"Surface","county":"Luzerne","unit":"short tons","tot_prod":5943}},{"type":"Feature","geometry":{"type":"Point","coordinates":[-80.47262,39.919627]},"properties":{"cartodb_id":328,"msha_id":3607230,"name":"Bailey Mine","type_":"Underground","county":"Greene","unit":"short tons","tot_prod":12056165}},{"type":"Feature","geometry":{"type":"Point","coordinates":[-76.111387,40.708354]},"properties":{"cartodb_id":329,"msha_id":3607240,"name":"E O J Strip Mine","type_":"Surface","county":"Schuylkill","unit":"short tons","tot_prod":7099}},{"type":"Feature","geometry":{"type":"Point","coordinates":[-80.346103,40.074651]},"properties":{"cartodb_id":330,"msha_id":3607416,"name":"Enlow Fork Mine","type_":"Underground","county":"Washington","unit":"short tons","tot_prod":9638245}},{"type":"Feature","geometry":{"type":"Point","coordinates":[-79.010163,40.766395]},"properties":{"cartodb_id":331,"msha_id":3607437,"name":"Rochester Mills Strip Mine","type_":"Surface","county":"Indiana","unit":"short tons","tot_prod":6053}},{"type":"Feature","geometry":{"type":"Point","coordinates":[-79.153333,41.186111]},"properties":{"cartodb_id":333,"msha_id":3607514,"name":"M S M Coal Company Inc","type_":"Surface","county":"Jefferson","unit":"short tons","tot_prod":9420}},{"type":"Feature","geometry":{"type":"Point","coordinates":[-78.398611,41.041667]},"properties":{"cartodb_id":334,"msha_id":3607550,"name":"Swisher Contracting Inc.","type_":"Surface","county":"Clearfield","unit":"short tons","tot_prod":25662}},{"type":"Feature","geometry":{"type":"Point","coordinates":[-78.251667,40.911389]},"properties":{"cartodb_id":335,"msha_id":3607561,"name":"Baumgardner Operation","type_":"Surface","county":"Clearfield","unit":"short tons","tot_prod":852}},{"type":"Feature","geometry":{"type":"Point","coordinates":[-76.544877,40.739913]},"properties":{"cartodb_id":336,"msha_id":3607576,"name":"Brockton Stripping","type_":"Surface","county":"Schuylkill","unit":"short tons","tot_prod":10514}},{"type":"Feature","geometry":{"type":"Point","coordinates":[-76.124722,40.738888]},"properties":{"cartodb_id":337,"msha_id":3607636,"name":"Mid Port Strip","type_":"Surface","county":"Schuylkill","unit":"short tons","tot_prod":43998}},{"type":"Feature","geometry":{"type":"Point","coordinates":[-78.175,40.975]},"properties":{"cartodb_id":338,"msha_id":3607670,"name":"King #1","type_":"Surface","county":"Clearfield","unit":"short tons","tot_prod":15427}},{"type":"Feature","geometry":{"type":"Point","coordinates":[-76.282777,40.704722]},"properties":{"cartodb_id":339,"msha_id":3607730,"name":"Serill Strip","type_":"Surface","county":"Schuylkill","unit":"short tons","tot_prod":12932}},{"type":"Feature","geometry":{"type":"Point","coordinates":[-76.114554,40.712767]},"properties":{"cartodb_id":340,"msha_id":3607758,"name":"Culm Co. #1","type_":"Surface","county":"Schuylkill","unit":"short tons","tot_prod":720}},{"type":"Feature","geometry":{"type":"Point","coordinates":[-76.304594,40.715036]},"properties":{"cartodb_id":341,"msha_id":3607772,"name":"Lone Eagle Mine","type_":"Surface","county":"Schuylkill","unit":"short tons","tot_prod":4071}},{"type":"Feature","geometry":{"type":"Point","coordinates":[-79.346944,40.589166]},"properties":{"cartodb_id":342,"msha_id":3607880,"name":"Condor Mine","type_":"Surface","county":"Indiana","unit":"short tons","tot_prod":3489}},{"type":"Feature","geometry":{"type":"Point","coordinates":[-78.930282,39.923795]},"properties":{"cartodb_id":343,"msha_id":3607928,"name":"Fieg Bros Coal Co.","type_":"Surface","county":"Somerset","unit":"short tons","tot_prod":100934}},{"type":"Feature","geometry":{"type":"Point","coordinates":[-76.395,40.705555]},"properties":{"cartodb_id":344,"msha_id":3608034,"name":"Mountaintop Strip","type_":"Surface","county":"Schuylkill","unit":"short tons","tot_prod":2800}},{"type":"Feature","geometry":{"type":"Point","coordinates":[-78.198333,40.993333]},"properties":{"cartodb_id":345,"msha_id":3608071,"name":"Enercorp Inc","type_":"Surface","county":"Clearfield","unit":"short tons","tot_prod":8433}},{"type":"Feature","geometry":{"type":"Point","coordinates":[-78.854025,40.492101]},"properties":{"cartodb_id":346,"msha_id":3608106,"name":"T J #1","type_":"Surface","county":"Cambria","unit":"short tons","tot_prod":803}},{"type":"Feature","geometry":{"type":"Point","coordinates":[-79.3075,40.691111]},"properties":{"cartodb_id":347,"msha_id":3608135,"name":"Darmac No. 2 Mine","type_":"Underground","county":"Armstrong","unit":"short tons","tot_prod":112676}},{"type":"Feature","geometry":{"type":"Point","coordinates":[-78.323333,41.008333]},"properties":{"cartodb_id":348,"msha_id":3608163,"name":"Hoover Job","type_":"Surface","county":"Clearfield","unit":"short tons","tot_prod":52278}},{"type":"Feature","geometry":{"type":"Point","coordinates":[-78.395746,40.835063]},"properties":{"cartodb_id":349,"msha_id":3608248,"name":"Shawver Operation","type_":"Surface","county":"Clearfield","unit":"short tons","tot_prod":19942}},{"type":"Feature","geometry":{"type":"Point","coordinates":[-79.117222,40.422778]},"properties":{"cartodb_id":350,"msha_id":3608262,"name":"Southern Division Strips","type_":"Surface","county":"Westmoreland","unit":"short tons","tot_prod":6972}},{"type":"Feature","geometry":{"type":"Point","coordinates":[-79.1,39.766667]},"properties":{"cartodb_id":351,"msha_id":3608307,"name":"Hardrock Coal Co.","type_":"Surface","county":"Somerset","unit":"short tons","tot_prod":500}},{"type":"Feature","geometry":{"type":"Point","coordinates":[-76.551944,40.613889]},"properties":{"cartodb_id":352,"msha_id":3608346,"name":"Primrose Slope","type_":"Underground","county":"Schuylkill","unit":"short tons","tot_prod":14874}},{"type":"Feature","geometry":{"type":"Point","coordinates":[-78.844444,40.815833]},"properties":{"cartodb_id":353,"msha_id":3608376,"name":"Beth #2","type_":"Surface","county":"Indiana","unit":"short tons","tot_prod":2054}},{"type":"Feature","geometry":{"type":"Point","coordinates":[-76.081388,41.157222]},"properties":{"cartodb_id":354,"msha_id":3608391,"name":"Glen Lyon Operation","type_":"Surface","county":"Luzerne","unit":"short tons","tot_prod":46473}},{"type":"Feature","geometry":{"type":"Point","coordinates":[-78.671114,40.675444]},"properties":{"cartodb_id":355,"msha_id":3608398,"name":"Epb Strip","type_":"Surface","county":"Cambria","unit":"short tons","tot_prod":113467}},{"type":"Feature","geometry":{"type":"Point","coordinates":[-76.449444,40.764722]},"properties":{"cartodb_id":356,"msha_id":3608489,"name":"West Spring Energy","type_":"Surface","county":"Northumberland","unit":"short tons","tot_prod":39652}},{"type":"Feature","geometry":{"type":"Point","coordinates":[-79.369444,40.593611]},"properties":{"cartodb_id":357,"msha_id":3608491,"name":"Big Run Mine","type_":"Surface","county":"Indiana","unit":"short tons","tot_prod":41328}},{"type":"Feature","geometry":{"type":"Point","coordinates":[-79.1775,39.943333]},"properties":{"cartodb_id":358,"msha_id":3608497,"name":"Somerset Co Surface","type_":"Surface","county":"Somerset","unit":"short tons","tot_prod":11858}},{"type":"Feature","geometry":{"type":"Point","coordinates":[-79.047054,40.190209]},"properties":{"cartodb_id":359,"msha_id":3608501,"name":"Mountaineer #1","type_":"Surface","county":"Somerset","unit":"short tons","tot_prod":45879}},{"type":"Feature","geometry":{"type":"Point","coordinates":[-77.966237,41.121219]},"properties":{"cartodb_id":360,"msha_id":3608504,"name":"Pioneer #1","type_":"Surface","county":"Clearfield","unit":"short tons","tot_prod":5156}},{"type":"Feature","geometry":{"type":"Point","coordinates":[-79.754862,40.234043]},"properties":{"cartodb_id":362,"msha_id":3608517,"name":"Adc, Inc Pit 008","type_":"Surface","county":"Westmoreland","unit":"short tons","tot_prod":17623}},{"type":"Feature","geometry":{"type":"Point","coordinates":[-79.194167,40.455556]},"properties":{"cartodb_id":363,"msha_id":3608525,"name":"Tom's Run Mine","type_":"Underground","county":"Indiana","unit":"short tons","tot_prod":36779}},{"type":"Feature","geometry":{"type":"Point","coordinates":[-80.18144,41.300421]},"properties":{"cartodb_id":364,"msha_id":3608541,"name":"Ben Hal Strips","type_":"Surface","county":"Mercer","unit":"short tons","tot_prod":49361}},{"type":"Feature","geometry":{"type":"Point","coordinates":[-75.963888,40.926388]},"properties":{"cartodb_id":365,"msha_id":3608550,"name":"Hazleton Shaft South","type_":"Surface","county":"Luzerne","unit":"short tons","tot_prod":61440}},{"type":"Feature","geometry":{"type":"Point","coordinates":[-76.323611,40.7925]},"properties":{"cartodb_id":366,"msha_id":3608590,"name":"Continental Strip","type_":"Surface","county":"Schuylkill","unit":"short tons","tot_prod":148511}},{"type":"Feature","geometry":{"type":"Point","coordinates":[-78.882222,41.182778]},"properties":{"cartodb_id":367,"msha_id":3608602,"name":"Waroquier #2","type_":"Surface","county":"Jefferson","unit":"short tons","tot_prod":5043}},{"type":"Feature","geometry":{"type":"Point","coordinates":[-79.45,40.6]},"properties":{"cartodb_id":368,"msha_id":3608603,"name":"Tracy Lynne","type_":"Underground","county":"Armstrong","unit":"short tons","tot_prod":92199}},{"type":"Feature","geometry":{"type":"Point","coordinates":[-76.275555,40.658888]},"properties":{"cartodb_id":369,"msha_id":3608613,"name":"Silverton Stripping","type_":"Surface","county":"Schuylkill","unit":"short tons","tot_prod":21678}},{"type":"Feature","geometry":{"type":"Point","coordinates":[-78.884722,40.149722]},"properties":{"cartodb_id":370,"msha_id":3608672,"name":"Marquise Strips","type_":"Surface","county":"Somerset","unit":"short tons","tot_prod":1227}},{"type":"Feature","geometry":{"type":"Point","coordinates":[-76.45,40.587222]},"properties":{"cartodb_id":371,"msha_id":3608679,"name":"No 5 Vein","type_":"Underground","county":"Schuylkill","unit":"short tons","tot_prod":9780}},{"type":"Feature","geometry":{"type":"Point","coordinates":[-76.233888,40.816666]},"properties":{"cartodb_id":372,"msha_id":3608684,"name":"Hynoski Bros Shenandoah Strip","type_":"Surface","county":"Schuylkill","unit":"short tons","tot_prod":10630}},{"type":"Feature","geometry":{"type":"Point","coordinates":[-79.286538,40.69954]},"properties":{"cartodb_id":373,"msha_id":3608701,"name":"Dutch Run","type_":"Underground","county":"Armstrong","unit":"short tons","tot_prod":109995}},{"type":"Feature","geometry":{"type":"Point","coordinates":[-78.668028,41.083217]},"properties":{"cartodb_id":374,"msha_id":3608705,"name":"Laurel Ridge #1","type_":"Surface","county":"Clearfield","unit":"short tons","tot_prod":522}},{"type":"Feature","geometry":{"type":"Point","coordinates":[-76.121701,40.756517]},"properties":{"cartodb_id":375,"msha_id":3608716,"name":"Silver Creek Mtn Mine Operatio","type_":"Surface","county":"Schuylkill","unit":"short tons","tot_prod":23899}},{"type":"Feature","geometry":{"type":"Point","coordinates":[-80.504748,40.66534]},"properties":{"cartodb_id":376,"msha_id":3608725,"name":"Beaver Valley","type_":"Underground","county":"Beaver","unit":"short tons","tot_prod":61410}},{"type":"Feature","geometry":{"type":"Point","coordinates":[-78.864769,40.646356]},"properties":{"cartodb_id":377,"msha_id":3608728,"name":"Carino No 1 Mine","type_":"Surface","county":"Indiana","unit":"short tons","tot_prod":375}},{"type":"Feature","geometry":{"type":"Point","coordinates":[-75.925,40.963333]},"properties":{"cartodb_id":378,"msha_id":3608745,"name":"Stockton Mine","type_":"Surface","county":"Luzerne","unit":"short tons","tot_prod":124806}},{"type":"Feature","geometry":{"type":"Point","coordinates":[-79.083333,40.089444]},"properties":{"cartodb_id":379,"msha_id":3608746,"name":"Quecreek #1 Mine","type_":"Underground","county":"Somerset","unit":"short tons","tot_prod":239333}},{"type":"Feature","geometry":{"type":"Point","coordinates":[-78.683056,40.999167]},"properties":{"cartodb_id":380,"msha_id":3608750,"name":"Bell Resources, Inc","type_":"Surface","county":"Clearfield","unit":"short tons","tot_prod":10669}},{"type":"Feature","geometry":{"type":"Point","coordinates":[-79.603505,40.898627]},"properties":{"cartodb_id":381,"msha_id":3608754,"name":"East Run Coal Co 2","type_":"Surface","county":"Armstrong","unit":"short tons","tot_prod":9416}},{"type":"Feature","geometry":{"type":"Point","coordinates":[-76.376389,40.803056]},"properties":{"cartodb_id":382,"msha_id":3608780,"name":"Logan Surface Mine","type_":"Surface","county":"Columbia","unit":"short tons","tot_prod":77261}},{"type":"Feature","geometry":{"type":"Point","coordinates":[-79.328056,40.661111]},"properties":{"cartodb_id":383,"msha_id":3608785,"name":"Parkwood Mine","type_":"Underground","county":"Armstrong","unit":"short tons","tot_prod":109086}},{"type":"Feature","geometry":{"type":"Point","coordinates":[-76.433333,40.801388]},"properties":{"cartodb_id":384,"msha_id":3608822,"name":"Sioux Bank","type_":"Surface","county":"Northumberland","unit":"short tons","tot_prod":4904}},{"type":"Feature","geometry":{"type":"Point","coordinates":[-79.5825,40.733056]},"properties":{"cartodb_id":385,"msha_id":3608841,"name":"Logansport Mine","type_":"Underground","county":"Armstrong","unit":"short tons","tot_prod":80680}},{"type":"Feature","geometry":{"type":"Point","coordinates":[-76.176944,40.814722]},"properties":{"cartodb_id":386,"msha_id":3608860,"name":"Ellangowan Stripping","type_":"Surface","county":"Schuylkill","unit":"short tons","tot_prod":72394}},{"type":"Feature","geometry":{"type":"Point","coordinates":[-76.128611,40.736388]},"properties":{"cartodb_id":387,"msha_id":3608893,"name":"7 Ft Slope","type_":"Underground","county":"Schuylkill","unit":"short tons","tot_prod":6852}},{"type":"Feature","geometry":{"type":"Point","coordinates":[-78.384722,40.852778]},"properties":{"cartodb_id":388,"msha_id":3609054,"name":"Huskin Mine","type_":"Surface","county":"Somerset","unit":"short tons","tot_prod":9218}},{"type":"Feature","geometry":{"type":"Point","coordinates":[-76.080277,40.746388]},"properties":{"cartodb_id":389,"msha_id":3609059,"name":"Kuperavage Ent Inc/Ta Tuscaror","type_":"Surface","county":"Schuylkill","unit":"short tons","tot_prod":8662}},{"type":"Feature","geometry":{"type":"Point","coordinates":[-79.893329,39.840054]},"properties":{"cartodb_id":390,"msha_id":3609086,"name":"Rose Mine","type_":"Surface","county":"Fayette","unit":"short tons","tot_prod":233}},{"type":"Feature","geometry":{"type":"Point","coordinates":[-78.878611,40.459444]},"properties":{"cartodb_id":391,"msha_id":3609122,"name":"Laurel Sand And Stone Inc","type_":"Surface","county":"Cambria","unit":"short tons","tot_prod":214867}},{"type":"Feature","geometry":{"type":"Point","coordinates":[-78.923056,40.404167]},"properties":{"cartodb_id":392,"msha_id":3609127,"name":"Madison Mine","type_":"Underground","county":"Cambria","unit":"short tons","tot_prod":173119}},{"type":"Feature","geometry":{"type":"Point","coordinates":[-78.857396,40.154606]},"properties":{"cartodb_id":393,"msha_id":3609131,"name":"Sherpa Mining","type_":"Surface","county":"Somerset","unit":"short tons","tot_prod":21614}},{"type":"Feature","geometry":{"type":"Point","coordinates":[-76.078393,40.74215]},"properties":{"cartodb_id":394,"msha_id":3609150,"name":"Jett #2 Stripping","type_":"Surface","county":"Schuylkill","unit":"short tons","tot_prod":264}},{"type":"Feature","geometry":{"type":"Point","coordinates":[-76.521111,40.613611]},"properties":{"cartodb_id":395,"msha_id":3609170,"name":"Goodspring Stripping","type_":"Surface","county":"Schuylkill","unit":"short tons","tot_prod":3097}},{"type":"Feature","geometry":{"type":"Point","coordinates":[-78.33105,41.087916]},"properties":{"cartodb_id":396,"msha_id":3609175,"name":"Kellar #1","type_":"Surface","county":"Clearfield","unit":"short tons","tot_prod":6160}},{"type":"Feature","geometry":{"type":"Point","coordinates":[-76.328611,40.678611]},"properties":{"cartodb_id":397,"msha_id":3609178,"name":"Branchdale Bank/Stripping","type_":"Surface","county":"Schuylkill","unit":"short tons","tot_prod":119327}},{"type":"Feature","geometry":{"type":"Point","coordinates":[-78.469344,40.680056]},"properties":{"cartodb_id":398,"msha_id":3609183,"name":"Auger #1","type_":"Surface","county":"Cambria","unit":"short tons","tot_prod":13850}},{"type":"Feature","geometry":{"type":"Point","coordinates":[-78.875,40.458333]},"properties":{"cartodb_id":399,"msha_id":3609185,"name":"Auger 3152","type_":"Surface","county":"Indiana","unit":"short tons","tot_prod":11210}},{"type":"Feature","geometry":{"type":"Point","coordinates":[-78.810946,40.40731]},"properties":{"cartodb_id":400,"msha_id":3609187,"name":"Auger No 3132","type_":"Surface","county":"Cambria","unit":"short tons","tot_prod":5184}},{"type":"Feature","geometry":{"type":"Point","coordinates":[-78.782777,40.239444]},"properties":{"cartodb_id":401,"msha_id":3609198,"name":"3166","type_":"Surface","county":"Somerset","unit":"short tons","tot_prod":1308}},{"type":"Feature","geometry":{"type":"Point","coordinates":[-78.809616,40.378528]},"properties":{"cartodb_id":402,"msha_id":3609203,"name":"3140","type_":"Surface","county":"Garrett","unit":"short tons","tot_prod":2939}},{"type":"Feature","geometry":{"type":"Point","coordinates":[-78.797778,40.738056]},"properties":{"cartodb_id":403,"msha_id":3609224,"name":"Cherry Tree Mine","type_":"Underground","county":"Clearfield","unit":"short tons","tot_prod":26619}},{"type":"Feature","geometry":{"type":"Point","coordinates":[-79.207492,40.43027]},"properties":{"cartodb_id":404,"msha_id":3609225,"name":"Falls Creek Auger Crew - 3","type_":"Surface","county":"Somerset","unit":"short tons","tot_prod":3346}},{"type":"Feature","geometry":{"type":"Point","coordinates":[-80.085294,40.165111]},"properties":{"cartodb_id":405,"msha_id":3609226,"name":"Neiswonger Mines","type_":"Surface","county":"Washington","unit":"short tons","tot_prod":6511}},{"type":"Feature","geometry":{"type":"Point","coordinates":[-76.363611,40.676111]},"properties":{"cartodb_id":406,"msha_id":3609259,"name":"Lone Eagle West","type_":"Surface","county":"Schuylkill","unit":"short tons","tot_prod":1426}},{"type":"Feature","geometry":{"type":"Point","coordinates":[-79.497873,40.474522]},"properties":{"cartodb_id":407,"msha_id":3609275,"name":"Bertovich Surface Mine","type_":"Surface","county":"Westmoreland","unit":"short tons","tot_prod":21160}},{"type":"Feature","geometry":{"type":"Point","coordinates":[-79.123333,40.571667]},"properties":{"cartodb_id":408,"msha_id":3609287,"name":"Lowry Mine","type_":"Underground","county":"Indiana","unit":"short tons","tot_prod":72192}},{"type":"Feature","geometry":{"type":"Point","coordinates":[-76.123889,40.832222]},"properties":{"cartodb_id":409,"msha_id":3609304,"name":"Park Mine Coal Company","type_":"Surface","county":"Schuylkill","unit":"short tons","tot_prod":24015}},{"type":"Feature","geometry":{"type":"Point","coordinates":[-78.80947,40.364123]},"properties":{"cartodb_id":410,"msha_id":3609306,"name":"Kellar #2","type_":"Surface","county":"Indiana","unit":"short tons","tot_prod":6431}},{"type":"Feature","geometry":{"type":"Point","coordinates":[-76.608611,40.781944]},"properties":{"cartodb_id":411,"msha_id":3609322,"name":"West End","type_":"Surface","county":"Northumberland","unit":"short tons","tot_prod":19458}},{"type":"Feature","geometry":{"type":"Point","coordinates":[-80.011111,39.756944]},"properties":{"cartodb_id":412,"msha_id":3609326,"name":"4 West Mine","type_":"Underground","county":"Greene","unit":"short tons","tot_prod":1982258}},{"type":"Feature","geometry":{"type":"Point","coordinates":[-78.889779,40.559469]},"properties":{"cartodb_id":414,"msha_id":3609342,"name":"Barrett Mine","type_":"Underground","county":"Indiana","unit":"short tons","tot_prod":315615}},{"type":"Feature","geometry":{"type":"Point","coordinates":[-76.677778,40.766389]},"properties":{"cartodb_id":415,"msha_id":3609348,"name":"Crystal Strip","type_":"Surface","county":"Northumberland","unit":"short tons","tot_prod":13864}},{"type":"Feature","geometry":{"type":"Point","coordinates":[-78.358333,40.831944]},"properties":{"cartodb_id":416,"msha_id":3609354,"name":"Finney Strips","type_":"Surface","county":"Clearfield","unit":"short tons","tot_prod":3785}},{"type":"Feature","geometry":{"type":"Point","coordinates":[-78.611389,41.233889]},"properties":{"cartodb_id":417,"msha_id":3609355,"name":"Penfield Mine","type_":"Underground","county":"Clearfield","unit":"short tons","tot_prod":143195}},{"type":"Feature","geometry":{"type":"Point","coordinates":[-79.255277,41.091388]},"properties":{"cartodb_id":418,"msha_id":3609364,"name":"Keck Strips","type_":"Surface","county":"Clarion","unit":"short tons","tot_prod":425}},{"type":"Feature","geometry":{"type":"Point","coordinates":[-78.775438,40.28284]},"properties":{"cartodb_id":419,"msha_id":3609371,"name":"Mine 78","type_":"Underground","county":"Somerset","unit":"short tons","tot_prod":308824}},{"type":"Feature","geometry":{"type":"Point","coordinates":[-80.179167,39.395833]},"properties":{"cartodb_id":420,"msha_id":3609383,"name":"3119","type_":"Surface","county":"Somerset","unit":"short tons","tot_prod":17645}},{"type":"Feature","geometry":{"type":"Point","coordinates":[-75.952777,40.959722]},"properties":{"cartodb_id":421,"msha_id":3609388,"name":"Hazleton Shaft Strip Mine","type_":"Surface","county":"Luzerne","unit":"short tons","tot_prod":5280}},{"type":"Feature","geometry":{"type":"Point","coordinates":[-79.331667,40.525278]},"properties":{"cartodb_id":422,"msha_id":3609394,"name":"Knob Creek","type_":"Underground","county":"Indiana","unit":"short tons","tot_prod":170446}},{"type":"Feature","geometry":{"type":"Point","coordinates":[-76.115278,40.828056]},"properties":{"cartodb_id":423,"msha_id":3609401,"name":"Primrose Operation","type_":"Surface","county":"Schuylkill","unit":"short tons","tot_prod":103458}},{"type":"Feature","geometry":{"type":"Point","coordinates":[-78.909167,40.615]},"properties":{"cartodb_id":424,"msha_id":3609407,"name":"Heilwood","type_":"Underground","county":"Indiana","unit":"short tons","tot_prod":276662}},{"type":"Feature","geometry":{"type":"Point","coordinates":[-76.586666,40.594722]},"properties":{"cartodb_id":425,"msha_id":3609435,"name":"Williamstown Mine #1","type_":"Underground","county":"Dauphin","unit":"short tons","tot_prod":15091}},{"type":"Feature","geometry":{"type":"Point","coordinates":[-78.763333,41.273611]},"properties":{"cartodb_id":426,"msha_id":3609436,"name":"Kocjancic","type_":"Underground","county":"Jefferson","unit":"short tons","tot_prod":88145}},{"type":"Feature","geometry":{"type":"Point","coordinates":[-79.108611,40.530556]},"properties":{"cartodb_id":427,"msha_id":3609437,"name":"Brush Valley","type_":"Underground","county":"Indiana","unit":"short tons","tot_prod":332755}},{"type":"Feature","geometry":{"type":"Point","coordinates":[-76.384291,40.63736]},"properties":{"cartodb_id":428,"msha_id":3609444,"name":"Blackwood Operation","type_":"Surface","county":"Schuylkill","unit":"short tons","tot_prod":3524}},{"type":"Feature","geometry":{"type":"Point","coordinates":[-79.617222,40.863889]},"properties":{"cartodb_id":429,"msha_id":3609468,"name":"Long Run","type_":"Underground","county":"Armstrong","unit":"short tons","tot_prod":24670}},{"type":"Feature","geometry":{"type":"Point","coordinates":[-78.785945,40.036032]},"properties":{"cartodb_id":430,"msha_id":3609469,"name":"Clearfield County Strips","type_":"Surface","county":"Clearfield","unit":"short tons","tot_prod":777}},{"type":"Feature","geometry":{"type":"Point","coordinates":[-76.647222,40.778333]},"properties":{"cartodb_id":431,"msha_id":3609475,"name":"No 13 Slope","type_":"Underground","county":"Northumberland","unit":"short tons","tot_prod":5790}},{"type":"Feature","geometry":{"type":"Point","coordinates":[-78.711389,40.779167]},"properties":{"cartodb_id":432,"msha_id":3609477,"name":"Harmony Mine","type_":"Underground","county":"Clearfield","unit":"short tons","tot_prod":160836}},{"type":"Feature","geometry":{"type":"Point","coordinates":[-76.331667,40.667778]},"properties":{"cartodb_id":433,"msha_id":3609495,"name":"Durham/Dienno Operation","type_":"Surface","county":"Schuylkill","unit":"short tons","tot_prod":1901}},{"type":"Feature","geometry":{"type":"Point","coordinates":[-75.9725,40.921111]},"properties":{"cartodb_id":434,"msha_id":3609501,"name":"Spring Mountain Operation","type_":"Surface","county":"Luzerne","unit":"short tons","tot_prod":6903}},{"type":"Feature","geometry":{"type":"Point","coordinates":[-76.277605,40.661837]},"properties":{"cartodb_id":435,"msha_id":3609511,"name":"Selkirk 2","type_":"Surface","county":"Schuylkill","unit":"short tons","tot_prod":2042}},{"type":"Feature","geometry":{"type":"Point","coordinates":[-76.478333,40.815]},"properties":{"cartodb_id":436,"msha_id":3609545,"name":"Mustang Stripping","type_":"Surface","county":"Northumberland","unit":"short tons","tot_prod":13104}},{"type":"Feature","geometry":{"type":"Point","coordinates":[-76.240277,40.811944]},"properties":{"cartodb_id":437,"msha_id":3609547,"name":"Brownsville","type_":"Surface","county":"Schuylkill","unit":"short tons","tot_prod":55739}},{"type":"Feature","geometry":{"type":"Point","coordinates":[-76.680833,40.765555]},"properties":{"cartodb_id":438,"msha_id":3609548,"name":"Trevorton Strip","type_":"Surface","county":"Northumberland","unit":"short tons","tot_prod":22565}},{"type":"Feature","geometry":{"type":"Point","coordinates":[-76.408333,40.775278]},"properties":{"cartodb_id":439,"msha_id":3609558,"name":"Locust Summit Strip Mine","type_":"Surface","county":"Northumberland","unit":"short tons","tot_prod":32405}},{"type":"Feature","geometry":{"type":"Point","coordinates":[-79.165797,40.500364]},"properties":{"cartodb_id":441,"msha_id":3609595,"name":"Coral-Graceton","type_":"Underground","county":"Indiana","unit":"short tons","tot_prod":62262}},{"type":"Feature","geometry":{"type":"Point","coordinates":[-80.000964,40.141277]},"properties":{"cartodb_id":442,"msha_id":3609597,"name":"Washington County Strips","type_":"Surface","county":"Washington","unit":"short tons","tot_prod":59070}},{"type":"Feature","geometry":{"type":"Point","coordinates":[-78.260223,41.089041]},"properties":{"cartodb_id":443,"msha_id":3609603,"name":"Res Shawville","type_":"Surface","county":"Clearfield","unit":"short tons","tot_prod":233801}},{"type":"Feature","geometry":{"type":"Point","coordinates":[-78.332222,40.794722]},"properties":{"cartodb_id":444,"msha_id":3609604,"name":"Res Houtzdale","type_":"Surface","county":"Clearfield","unit":"short tons","tot_prod":133612}},{"type":"Feature","geometry":{"type":"Point","coordinates":[-78.192222,40.942222]},"properties":{"cartodb_id":445,"msha_id":3609605,"name":"Res Morrisdale","type_":"Surface","county":"Clearfield","unit":"short tons","tot_prod":202184}},{"type":"Feature","geometry":{"type":"Point","coordinates":[-76.632778,40.758333]},"properties":{"cartodb_id":446,"msha_id":3609632,"name":"No 1 Stripping","type_":"Surface","county":"Northumberland","unit":"short tons","tot_prod":6260}},{"type":"Feature","geometry":{"type":"Point","coordinates":[-78.724458,41.036854]},"properties":{"cartodb_id":447,"msha_id":3609651,"name":"Clearfield County Strips","type_":"Surface","county":"Clearfield","unit":"short tons","tot_prod":12474}},{"type":"Feature","geometry":{"type":"Point","coordinates":[-79.28441,40.557431]},"properties":{"cartodb_id":448,"msha_id":3609654,"name":"Amerikohl Strips","type_":"Surface","county":"Butler","unit":"short tons","tot_prod":212387}},{"type":"Feature","geometry":{"type":"Point","coordinates":[-78.702222,41.030278]},"properties":{"cartodb_id":449,"msha_id":3609679,"name":"Beard Job","type_":"Surface","county":"Clearfield","unit":"short tons","tot_prod":327}},{"type":"Feature","geometry":{"type":"Point","coordinates":[-80.036944,41.1325]},"properties":{"cartodb_id":450,"msha_id":3609697,"name":"Uschak","type_":"Surface","county":"Butler","unit":"short tons","tot_prod":1075}},{"type":"Feature","geometry":{"type":"Point","coordinates":[-79.007987,40.420545]},"properties":{"cartodb_id":451,"msha_id":3609756,"name":"Robindale Energy - Armagh","type_":"Surface","county":"Bedford","unit":"short tons","tot_prod":474}},{"type":"Feature","geometry":{"type":"Point","coordinates":[-79.174444,40.452778]},"properties":{"cartodb_id":452,"msha_id":3609840,"name":"Allegheny Strips","type_":"Surface","county":"Armstrong","unit":"short tons","tot_prod":13777}},{"type":"Feature","geometry":{"type":"Point","coordinates":[-76.424444,40.798333]},"properties":{"cartodb_id":453,"msha_id":3609843,"name":"Atlas Anthracite Coal Corporat","type_":"Surface","county":"Northumberland","unit":"short tons","tot_prod":14089}},{"type":"Feature","geometry":{"type":"Point","coordinates":[-76.764167,40.988333]},"properties":{"cartodb_id":454,"msha_id":3609860,"name":"Buck Mountain Vein","type_":"Underground","county":"Schuylkill","unit":"short tons","tot_prod":5357}},{"type":"Feature","geometry":{"type":"Point","coordinates":[-80.375555,40.380833]},"properties":{"cartodb_id":455,"msha_id":3609879,"name":"Lounder Mine & Bare #2 Mine","type_":"Surface","county":"Washington","unit":"short tons","tot_prod":1352}},{"type":"Feature","geometry":{"type":"Point","coordinates":[-78.931389,40.080556]},"properties":{"cartodb_id":456,"msha_id":3609881,"name":"Coal Loaders, Inc.","type_":"Surface","county":"Somerset","unit":"short tons","tot_prod":9776}},{"type":"Feature","geometry":{"type":"Point","coordinates":[-76.566388,40.772777]},"properties":{"cartodb_id":457,"msha_id":3609885,"name":"Blue Ridge Mining","type_":"Surface","county":"Northumberland","unit":"short tons","tot_prod":1896}},{"type":"Feature","geometry":{"type":"Point","coordinates":[-78.850833,40.307222]},"properties":{"cartodb_id":458,"msha_id":3609886,"name":"Solomon Run  Mine","type_":"Surface","county":"Cambria","unit":"short tons","tot_prod":30170}},{"type":"Feature","geometry":{"type":"Point","coordinates":[-79.051182,40.112142]},"properties":{"cartodb_id":459,"msha_id":3609888,"name":"Wilson Creek Surface Mines","type_":"Surface","county":"Somerset","unit":"short tons","tot_prod":9613}},{"type":"Feature","geometry":{"type":"Point","coordinates":[-78.201666,40.193055]},"properties":{"cartodb_id":460,"msha_id":3609923,"name":"Tasara Strips","type_":"Surface","county":"Bedford","unit":"short tons","tot_prod":104861}},{"type":"Feature","geometry":{"type":"Point","coordinates":[-78.863038,40.131006]},"properties":{"cartodb_id":461,"msha_id":3609956,"name":"3139","type_":"Surface","county":"Somerset","unit":"short tons","tot_prod":24100}},{"type":"Feature","geometry":{"type":"Point","coordinates":[-76.248119,40.726857]},"properties":{"cartodb_id":462,"msha_id":3609963,"name":"Slope #2","type_":"Underground","county":"Schuylkill","unit":"short tons","tot_prod":9865}},{"type":"Feature","geometry":{"type":"Point","coordinates":[-78.258333,40.870833]},"properties":{"cartodb_id":463,"msha_id":3609965,"name":"Horton Strips","type_":"Surface","county":"Clearfield","unit":"short tons","tot_prod":1893}},{"type":"Feature","geometry":{"type":"Point","coordinates":[-79.238448,40.670815]},"properties":{"cartodb_id":464,"msha_id":3609972,"name":"Crooked Creek Mine","type_":"Underground","county":"Indiana","unit":"short tons","tot_prod":126665}},{"type":"Feature","geometry":{"type":"Point","coordinates":[-79.074167,39.853889]},"properties":{"cartodb_id":465,"msha_id":3609974,"name":"Cass #1 Mine","type_":"Underground","county":"Somerset","unit":"short tons","tot_prod":287675}},{"type":"Feature","geometry":{"type":"Point","coordinates":[-79.964444,39.836111]},"properties":{"cartodb_id":466,"msha_id":3609997,"name":"Robena Surface Mine","type_":"Surface","county":"Greene","unit":"short tons","tot_prod":106830}},{"type":"Feature","geometry":{"type":"Point","coordinates":[-79.385833,40.359722]},"properties":{"cartodb_id":467,"msha_id":3610009,"name":"Kingston West","type_":"Underground","county":"Westmoreland","unit":"short tons","tot_prod":21371}},{"type":"Feature","geometry":{"type":"Point","coordinates":[-80.166389,39.099722]},"properties":{"cartodb_id":468,"msha_id":3610021,"name":"11","type_":"Surface","county":"Monongalia","unit":"short tons","tot_prod":19715}},{"type":"Feature","geometry":{"type":"Point","coordinates":[-79.061587,40.127334]},"properties":{"cartodb_id":469,"msha_id":3610041,"name":"North Fork","type_":"Underground","county":"Somerset","unit":"short tons","tot_prod":359372}},{"type":"Feature","geometry":{"type":"Point","coordinates":[-80.420833,39.969444]},"properties":{"cartodb_id":470,"msha_id":3610045,"name":"Harvey Mine","type_":"Underground","county":"Greene","unit":"short tons","tot_prod":2971179}},{"type":"Feature","geometry":{"type":"Point","coordinates":[-79.632231,39.965696]},"properties":{"cartodb_id":471,"msha_id":3610053,"name":"Fay Penn #1","type_":"Surface","county":"Fayette","unit":"short tons","tot_prod":2119}},{"type":"Feature","geometry":{"type":"Point","coordinates":[-78.845278,40.022778]},"properties":{"cartodb_id":472,"msha_id":3610067,"name":"Boone Surface Mine","type_":"Surface","county":"Somerset","unit":"short tons","tot_prod":1601}},{"type":"Feature","geometry":{"type":"Point","coordinates":[-78.793333,40.7925]},"properties":{"cartodb_id":473,"msha_id":3610074,"name":"Frantz Brothers Strips","type_":"Surface","county":"Clearfield","unit":"short tons","tot_prod":3108}},{"type":"Feature","geometry":{"type":"Point","coordinates":[-76.683056,40.773611]},"properties":{"cartodb_id":474,"msha_id":3610110,"name":"Bottom Rock Slope","type_":"Underground","county":"Northumberland","unit":"short tons","tot_prod":1202}},{"type":"Feature","geometry":{"type":"Point","coordinates":[-75.838333,40.995556]},"properties":{"cartodb_id":475,"msha_id":3610138,"name":"Hazleton Materials","type_":"Surface","county":"Luzerne","unit":"short tons","tot_prod":52548}},{"type":"Feature","geometry":{"type":"Point","coordinates":[-79.928333,39.820278]},"properties":{"cartodb_id":476,"msha_id":3610142,"name":"Ferrara","type_":"Surface","county":"Greene","unit":"short tons","tot_prod":7731}},{"type":"Feature","geometry":{"type":"Point","coordinates":[-79.060556,39.755556]},"properties":{"cartodb_id":477,"msha_id":3610150,"name":"Mast Mine","type_":"Surface","county":"Somerset","unit":"short tons","tot_prod":22866}},{"type":"Feature","geometry":{"type":"Point","coordinates":[-76.249722,40.709722]},"properties":{"cartodb_id":478,"msha_id":3610151,"name":"Schaeffer Hill Refuse Bank","type_":"Surface","county":"Schuylkill","unit":"short tons","tot_prod":1200}},{"type":"Feature","geometry":{"type":"Point","coordinates":[-78.854444,40.310278]},"properties":{"cartodb_id":479,"msha_id":3610165,"name":"Solomon Run","type_":"Surface","county":"Cambria","unit":"short tons","tot_prod":126047}},{"type":"Feature","geometry":{"type":"Point","coordinates":[-78.844722,40.114167]},"properties":{"cartodb_id":480,"msha_id":3610185,"name":"Elk Resources Auger Crew 1","type_":"Surface","county":"Somerset","unit":"short tons","tot_prod":21981}},{"type":"Feature","geometry":{"type":"Point","coordinates":[-83.883056,36.56]},"properties":{"cartodb_id":481,"msha_id":4003027,"name":"Surface Mine #1","type_":"Surface","county":"Claiborne","unit":"short tons","tot_prod":86359}},{"type":"Feature","geometry":{"type":"Point","coordinates":[-83.882778,36.559444]},"properties":{"cartodb_id":482,"msha_id":4003177,"name":"Prosperity Mine No. 1","type_":"Underground","county":"Claiborne","unit":"short tons","tot_prod":12550}},{"type":"Feature","geometry":{"type":"Point","coordinates":[-83.7775,36.573611]},"properties":{"cartodb_id":483,"msha_id":4003273,"name":"Watson Branch","type_":"Underground","county":"Claiborne","unit":"short tons","tot_prod":41479}},{"type":"Feature","geometry":{"type":"Point","coordinates":[-83.948184,36.518351]},"properties":{"cartodb_id":484,"msha_id":4003351,"name":"Straight Creek Surface Mine #1","type_":"Surface","county":"Claiborne","unit":"short tons","tot_prod":134344}},{"type":"Feature","geometry":{"type":"Point","coordinates":[-79.061111,40.127778]},"properties":{"cartodb_id":485,"msha_id":4003353,"name":"Wilson Creek Hwm #1","type_":"Surface","county":"Somerset","unit":"short tons","tot_prod":23943}},{"type":"Feature","geometry":{"type":"Point","coordinates":[-83.949444,36.549167]},"properties":{"cartodb_id":486,"msha_id":4003365,"name":"Double Mountain Mine","type_":"Underground","county":"Claiborne","unit":"short tons","tot_prod":318402}},{"type":"Feature","geometry":{"type":"Point","coordinates":[-83.055,37.62]},"properties":{"cartodb_id":487,"msha_id":4003398,"name":"Shm-75 (Eagle Creek)","type_":"Surface","county":"Wyoming","unit":"short tons","tot_prod":39850}},{"type":"Feature","geometry":{"type":"Point","coordinates":[-83.899444,36.540556]},"properties":{"cartodb_id":488,"msha_id":4003441,"name":"Cooper Ridge Deep Mine","type_":"Underground","county":"Claiborne","unit":"short tons","tot_prod":50847}},{"type":"Feature","geometry":{"type":"Point","coordinates":[-96.049722,31.833056]},"properties":{"cartodb_id":489,"msha_id":4101192,"name":"Big Brown Strip","type_":"Surface","county":"Freestone","unit":"short tons","tot_prod":1341856}},{"type":"Feature","geometry":{"type":"Point","coordinates":[-94.497999,32.248698]},"properties":{"cartodb_id":490,"msha_id":4102632,"name":"Beckville Strip","type_":"Surface","county":"Panola","unit":"short tons","tot_prod":43036}},{"type":"Feature","geometry":{"type":"Point","coordinates":[-95.550556,33.098056]},"properties":{"cartodb_id":491,"msha_id":4102776,"name":"Sulphur Springs Strip","type_":"Surface","county":"Hopkins","unit":"short tons","tot_prod":59120}},{"type":"Feature","geometry":{"type":"Point","coordinates":[-98.466666,28.683333]},"properties":{"cartodb_id":492,"msha_id":4102840,"name":"San Miguel Lignite Mine","type_":"Surface","county":"Atascosa","unit":"short tons","tot_prod":2776858}},{"type":"Feature","geometry":{"type":"Point","coordinates":[-94.508873,32.453044]},"properties":{"cartodb_id":493,"msha_id":4103101,"name":"South Hallsville No 1 Mine","type_":"Surface","county":"Harrison","unit":"short tons","tot_prod":4186658}},{"type":"Feature","geometry":{"type":"Point","coordinates":[-96.240833,31.413611]},"properties":{"cartodb_id":494,"msha_id":4103164,"name":"Jewett Mine","type_":"Surface","county":"Leon","unit":"short tons","tot_prod":3664991}},{"type":"Feature","geometry":{"type":"Point","coordinates":[-96.668333,31.098888]},"properties":{"cartodb_id":495,"msha_id":4103428,"name":"Calvert Mine","type_":"Surface","county":"Robertson","unit":"short tons","tot_prod":2123226}},{"type":"Feature","geometry":{"type":"Point","coordinates":[-94.448333,32.297778]},"properties":{"cartodb_id":496,"msha_id":4103659,"name":"Tatum Strip Mine","type_":"Surface","county":"Panola","unit":"short tons","tot_prod":2827656}},{"type":"Feature","geometry":{"type":"Point","coordinates":[-94.737149,32.216398]},"properties":{"cartodb_id":497,"msha_id":4103660,"name":"Oak Hill Strip","type_":"Surface","county":"Rusk","unit":"short tons","tot_prod":1185715}},{"type":"Feature","geometry":{"type":"Point","coordinates":[-100.445833,28.816111]},"properties":{"cartodb_id":498,"msha_id":4103739,"name":"Eagle Pass Mine","type_":"Surface","county":"Maverick","unit":"short tons","tot_prod":1788032}},{"type":"Feature","geometry":{"type":"Point","coordinates":[-97.216389,30.416389]},"properties":{"cartodb_id":499,"msha_id":4104085,"name":"Three Oaks","type_":"Surface","county":"Lee","unit":"short tons","tot_prod":6983347}},{"type":"Feature","geometry":{"type":"Point","coordinates":[-96.495277,31.2825]},"properties":{"cartodb_id":500,"msha_id":4104586,"name":"Kosse Strip","type_":"Surface","county":"Limestone","unit":"short tons","tot_prod":9299300}},{"type":"Feature","geometry":{"type":"Point","coordinates":[-94.296944,32.349722]},"properties":{"cartodb_id":501,"msha_id":4104864,"name":"Marshall Mine","type_":"Surface","county":"Harrison","unit":"short tons","tot_prod":213647}},{"type":"Feature","geometry":{"type":"Point","coordinates":[-94.612716,32.264199]},"properties":{"cartodb_id":502,"msha_id":4104964,"name":"Liberty","type_":"Surface","county":"Rusk","unit":"short tons","tot_prod":2507142}},{"type":"Feature","geometry":{"type":"Point","coordinates":[-111.416944,38.913333]},"properties":{"cartodb_id":503,"msha_id":4200089,"name":"Sufco","type_":"Underground","county":"Sevier","unit":"short tons","tot_prod":5375171}},{"type":"Feature","geometry":{"type":"Point","coordinates":[-111.121944,39.2975]},"properties":{"cartodb_id":504,"msha_id":4201211,"name":"Fossil Rock Mine","type_":"Surface","county":"Emery","unit":"short tons","tot_prod":3812}},{"type":"Feature","geometry":{"type":"Point","coordinates":[-111.233494,39.677278]},"properties":{"cartodb_id":505,"msha_id":4201566,"name":"Skyline Mine #3","type_":"Underground","county":"Carbon","unit":"short tons","tot_prod":4756924}},{"type":"Feature","geometry":{"type":"Point","coordinates":[-110.543889,39.6825]},"properties":{"cartodb_id":506,"msha_id":4201890,"name":"Dugout Canyon Mine","type_":"Underground","county":"Carbon","unit":"short tons","tot_prod":650208}},{"type":"Feature","geometry":{"type":"Point","coordinates":[-110.340556,39.426111]},"properties":{"cartodb_id":507,"msha_id":4202241,"name":"Lila Canyon","type_":"Underground","county":"Carbon","unit":"short tons","tot_prod":1586720}},{"type":"Feature","geometry":{"type":"Point","coordinates":[-111.093579,39.408864]},"properties":{"cartodb_id":508,"msha_id":4202263,"name":"Castle Valley Mine #3","type_":"Underground","county":"Emery","unit":"short tons","tot_prod":169899}},{"type":"Feature","geometry":{"type":"Point","coordinates":[-111.093889,39.408333]},"properties":{"cartodb_id":509,"msha_id":4202335,"name":"Castle Valley Mine #4","type_":"Underground","county":"Emery","unit":"short tons","tot_prod":724291}},{"type":"Feature","geometry":{"type":"Point","coordinates":[-112.454167,37.406111]},"properties":{"cartodb_id":510,"msha_id":4202519,"name":"Coal Hollow Mine","type_":"Surface","county":"Kane","unit":"short tons","tot_prod":669025}},{"type":"Feature","geometry":{"type":"Point","coordinates":[-112.452778,37.396944]},"properties":{"cartodb_id":511,"msha_id":4202639,"name":"Burton #1 Mine","type_":"Underground","county":"Kane","unit":"short tons","tot_prod":33884}},{"type":"Feature","geometry":{"type":"Point","coordinates":[-81.836111,37.252778]},"properties":{"cartodb_id":512,"msha_id":4401486,"name":"Meridian #2","type_":"Underground","county":"Buchanan","unit":"short tons","tot_prod":137783}},{"type":"Feature","geometry":{"type":"Point","coordinates":[-82.311174,37.038709]},"properties":{"cartodb_id":513,"msha_id":4403443,"name":"Wakenva Prep Plant","type_":"Surface","county":"Dickenson","unit":"short tons","tot_prod":314273}},{"type":"Feature","geometry":{"type":"Point","coordinates":[-81.986944,37.161389]},"properties":{"cartodb_id":514,"msha_id":4404856,"name":"Buchanan Mine #1","type_":"Underground","county":"Buchanan","unit":"short tons","tot_prod":4946468}},{"type":"Feature","geometry":{"type":"Point","coordinates":[-82.693333,37.017778]},"properties":{"cartodb_id":515,"msha_id":4406045,"name":"No 5 Strip","type_":"Surface","county":"Wise","unit":"short tons","tot_prod":3730}},{"type":"Feature","geometry":{"type":"Point","coordinates":[-82.699167,37.027222]},"properties":{"cartodb_id":516,"msha_id":4406084,"name":"No 27 Strip","type_":"Surface","county":"Wise","unit":"short tons","tot_prod":237718}},{"type":"Feature","geometry":{"type":"Point","coordinates":[-81.838765,37.249698]},"properties":{"cartodb_id":517,"msha_id":4406499,"name":"D-18","type_":"Underground","county":"Buchanan","unit":"short tons","tot_prod":194242}},{"type":"Feature","geometry":{"type":"Point","coordinates":[-82.788837,36.963744]},"properties":{"cartodb_id":518,"msha_id":4406544,"name":"Sawmill Hollow #1","type_":"Surface","county":"Lee","unit":"short tons","tot_prod":112444}},{"type":"Feature","geometry":{"type":"Point","coordinates":[-82.710278,37.056389]},"properties":{"cartodb_id":519,"msha_id":4406545,"name":"No. 28 Strip","type_":"Surface","county":"Wise","unit":"short tons","tot_prod":180268}},{"type":"Feature","geometry":{"type":"Point","coordinates":[-81.853056,37.276111]},"properties":{"cartodb_id":520,"msha_id":4406748,"name":"D-16","type_":"Underground","county":"Buchanan","unit":"short tons","tot_prod":82356}},{"type":"Feature","geometry":{"type":"Point","coordinates":[-82.139736,37.252158]},"properties":{"cartodb_id":521,"msha_id":4406839,"name":"D-20","type_":"Underground","county":"Buchanan","unit":"short tons","tot_prod":6944}},{"type":"Feature","geometry":{"type":"Point","coordinates":[-82.235833,37.316389]},"properties":{"cartodb_id":522,"msha_id":4406868,"name":"No 6","type_":"Underground","county":"Buchanan","unit":"short tons","tot_prod":59240}},{"type":"Feature","geometry":{"type":"Point","coordinates":[-82.002222,37.349167]},"properties":{"cartodb_id":523,"msha_id":4406920,"name":"No. 2","type_":"Underground","county":"Buchanan","unit":"short tons","tot_prod":61833}},{"type":"Feature","geometry":{"type":"Point","coordinates":[-82.521669,37.085255]},"properties":{"cartodb_id":524,"msha_id":4406929,"name":"Deep Mine #26","type_":"Underground","county":"Dickenson","unit":"short tons","tot_prod":346657}},{"type":"Feature","geometry":{"type":"Point","coordinates":[-82.721667,36.9625]},"properties":{"cartodb_id":525,"msha_id":4406992,"name":"Strip #12","type_":"Surface","county":"Wise","unit":"short tons","tot_prod":120195}},{"type":"Feature","geometry":{"type":"Point","coordinates":[-82.150652,37.190402]},"properties":{"cartodb_id":526,"msha_id":4407045,"name":"D-19","type_":"Underground","county":"Buchanan","unit":"short tons","tot_prod":72246}},{"type":"Feature","geometry":{"type":"Point","coordinates":[-82.151111,37.190556]},"properties":{"cartodb_id":527,"msha_id":4407047,"name":"D-15","type_":"Underground","county":"Buchanan","unit":"short tons","tot_prod":2671}},{"type":"Feature","geometry":{"type":"Point","coordinates":[-82.785468,36.966167]},"properties":{"cartodb_id":528,"msha_id":4407052,"name":"D-10 Dorchester","type_":"Underground","county":"Wise","unit":"short tons","tot_prod":19841}},{"type":"Feature","geometry":{"type":"Point","coordinates":[-84.016667,36.815556]},"properties":{"cartodb_id":529,"msha_id":4407079,"name":"Ghm #51","type_":"Surface","county":"Whitley","unit":"short tons","tot_prod":17952}},{"type":"Feature","geometry":{"type":"Point","coordinates":[-82.731111,37.009167]},"properties":{"cartodb_id":530,"msha_id":4407081,"name":"No. 2","type_":"Underground","county":"Wise","unit":"short tons","tot_prod":18291}},{"type":"Feature","geometry":{"type":"Point","coordinates":[-83.891389,36.778056]},"properties":{"cartodb_id":531,"msha_id":4407085,"name":"Ghm #37","type_":"Surface","county":"Whitley","unit":"short tons","tot_prod":2238}},{"type":"Feature","geometry":{"type":"Point","coordinates":[-82.8375,36.968889]},"properties":{"cartodb_id":532,"msha_id":4407087,"name":"D-6 North Fork","type_":"Underground","county":"Wise","unit":"short tons","tot_prod":215642}},{"type":"Feature","geometry":{"type":"Point","coordinates":[-87.158889,37.075556]},"properties":{"cartodb_id":533,"msha_id":4407089,"name":"Ghm #32","type_":"Surface","county":"Dickenson","unit":"short tons","tot_prod":11438}},{"type":"Feature","geometry":{"type":"Point","coordinates":[-82.528889,37.135]},"properties":{"cartodb_id":534,"msha_id":4407129,"name":"Deep Mine #25","type_":"Underground","county":"Dickenson","unit":"short tons","tot_prod":149677}},{"type":"Feature","geometry":{"type":"Point","coordinates":[-82.658175,36.971021]},"properties":{"cartodb_id":535,"msha_id":4407133,"name":"No. 26 Strip","type_":"Surface","county":"Wise","unit":"short tons","tot_prod":137014}},{"type":"Feature","geometry":{"type":"Point","coordinates":[-82.720556,37.058889]},"properties":{"cartodb_id":536,"msha_id":4407137,"name":"No. 2","type_":"Underground","county":"Wise","unit":"short tons","tot_prod":239885}},{"type":"Feature","geometry":{"type":"Point","coordinates":[-82.807222,36.879167]},"properties":{"cartodb_id":537,"msha_id":4407150,"name":"D-7 Osaka","type_":"Underground","county":"Wise","unit":"short tons","tot_prod":125221}},{"type":"Feature","geometry":{"type":"Point","coordinates":[-82.201667,37.296111]},"properties":{"cartodb_id":538,"msha_id":4407154,"name":"No. 5","type_":"Underground","county":"Buchanan","unit":"short tons","tot_prod":32400}},{"type":"Feature","geometry":{"type":"Point","coordinates":[-82.155933,37.071798]},"properties":{"cartodb_id":539,"msha_id":4407163,"name":"88 Strip","type_":"Surface","county":"Dickenson","unit":"short tons","tot_prod":545536}},{"type":"Feature","geometry":{"type":"Point","coordinates":[-81.497861,37.248142]},"properties":{"cartodb_id":540,"msha_id":4407172,"name":"Virginia Point No. 1 Surface M","type_":"Surface","county":"Tazewell","unit":"short tons","tot_prod":24645}},{"type":"Feature","geometry":{"type":"Point","coordinates":[-82.054167,37.405833]},"properties":{"cartodb_id":541,"msha_id":4407199,"name":"Laurel Branch Surface","type_":"Surface","county":"Buchanan","unit":"short tons","tot_prod":365725}},{"type":"Feature","geometry":{"type":"Point","coordinates":[-82.260833,37.043889]},"properties":{"cartodb_id":542,"msha_id":4407217,"name":"No 10","type_":"Underground","county":"Dickenson","unit":"short tons","tot_prod":20250}},{"type":"Feature","geometry":{"type":"Point","coordinates":[-81.783889,37.238889]},"properties":{"cartodb_id":543,"msha_id":4407220,"name":"D-17","type_":"Underground","county":"Buchanan","unit":"short tons","tot_prod":85323}},{"type":"Feature","geometry":{"type":"Point","coordinates":[-82.388333,37.096111]},"properties":{"cartodb_id":544,"msha_id":4407223,"name":"Deep Mine 41","type_":"Underground","county":"Dickenson","unit":"short tons","tot_prod":1510135}},{"type":"Feature","geometry":{"type":"Point","coordinates":[-82.244,37.315325]},"properties":{"cartodb_id":545,"msha_id":4407225,"name":"Huffman Fk.","type_":"Surface","county":"Buchanan","unit":"short tons","tot_prod":26780}},{"type":"Feature","geometry":{"type":"Point","coordinates":[-82.391389,37.183611]},"properties":{"cartodb_id":546,"msha_id":4407231,"name":"Mine No. 1","type_":"Underground","county":"Dickenson","unit":"short tons","tot_prod":17424}},{"type":"Feature","geometry":{"type":"Point","coordinates":[-81.976974,37.324333]},"properties":{"cartodb_id":547,"msha_id":4407254,"name":"3 Pole","type_":"Surface","county":"Buchanan","unit":"short tons","tot_prod":97324}},{"type":"Feature","geometry":{"type":"Point","coordinates":[-82.265018,37.297162]},"properties":{"cartodb_id":548,"msha_id":4407269,"name":"Middle Fork Hagy","type_":"Underground","county":"Buchanan","unit":"short tons","tot_prod":3280}},{"type":"Feature","geometry":{"type":"Point","coordinates":[-82.258594,37.310799]},"properties":{"cartodb_id":549,"msha_id":4407270,"name":"Surface Mine No. 1","type_":"Surface","county":"Buchanan","unit":"short tons","tot_prod":39480}},{"type":"Feature","geometry":{"type":"Point","coordinates":[-81.791356,37.254984]},"properties":{"cartodb_id":550,"msha_id":4407280,"name":"S-5 Aily Branch","type_":"Surface","county":"Buchanan","unit":"short tons","tot_prod":26258}},{"type":"Feature","geometry":{"type":"Point","coordinates":[-82.318055,37.158333]},"properties":{"cartodb_id":551,"msha_id":4407282,"name":"Mill Creek Mining, Inc. #1 Str","type_":"Surface","county":"Dickenson","unit":"short tons","tot_prod":25602}},{"type":"Feature","geometry":{"type":"Point","coordinates":[-82.113935,37.423763]},"properties":{"cartodb_id":553,"msha_id":4407285,"name":"No. 10","type_":"Surface","county":"Buchanan","unit":"short tons","tot_prod":274236}},{"type":"Feature","geometry":{"type":"Point","coordinates":[-81.833055,37.139166]},"properties":{"cartodb_id":554,"msha_id":4407288,"name":"Hill Creek Highwall","type_":"Surface","county":"Tazewell","unit":"short tons","tot_prod":205695}},{"type":"Feature","geometry":{"type":"Point","coordinates":[-82.395833,37.106667]},"properties":{"cartodb_id":555,"msha_id":4407306,"name":"Omm","type_":"Underground","county":"Dickenson","unit":"short tons","tot_prod":10000}},{"type":"Feature","geometry":{"type":"Point","coordinates":[-82.374167,37.058889]},"properties":{"cartodb_id":556,"msha_id":4407308,"name":"No. 9","type_":"Underground","county":"Dickenson","unit":"short tons","tot_prod":118549}},{"type":"Feature","geometry":{"type":"Point","coordinates":[-81.976667,37.081944]},"properties":{"cartodb_id":557,"msha_id":4407313,"name":"Buffalo Highwall","type_":"Surface","county":"Russell","unit":"short tons","tot_prod":179268}},{"type":"Feature","geometry":{"type":"Point","coordinates":[-82.193857,37.366898]},"properties":{"cartodb_id":558,"msha_id":4407318,"name":"Hackney Creek Hagy","type_":"Underground","county":"Buchanan","unit":"short tons","tot_prod":494395}},{"type":"Feature","geometry":{"type":"Point","coordinates":[-82.230556,37.039167]},"properties":{"cartodb_id":559,"msha_id":4407322,"name":"Cabin Ridge Surface Mine","type_":"Surface","county":"Dickenson","unit":"short tons","tot_prod":388833}},{"type":"Feature","geometry":{"type":"Point","coordinates":[-82.015211,37.097722]},"properties":{"cartodb_id":560,"msha_id":4407326,"name":"Louis Lowe Surface Mine","type_":"Surface","county":"Buchanan","unit":"short tons","tot_prod":1125}},{"type":"Feature","geometry":{"type":"Point","coordinates":[-82.232222,37.312778]},"properties":{"cartodb_id":561,"msha_id":4407327,"name":"Huffman Highwall","type_":"Surface","county":"Buchanan","unit":"short tons","tot_prod":163167}},{"type":"Feature","geometry":{"type":"Point","coordinates":[-82.1725,36.989722]},"properties":{"cartodb_id":562,"msha_id":4407329,"name":"Hurrican Fork Gobco #10","type_":"Surface","county":"Russell","unit":"short tons","tot_prod":184094}},{"type":"Feature","geometry":{"type":"Point","coordinates":[-82.212778,37.01]},"properties":{"cartodb_id":563,"msha_id":4407354,"name":"Gobco #11","type_":"Surface","county":"Russell","unit":"short tons","tot_prod":204684}},{"type":"Feature","geometry":{"type":"Point","coordinates":[-82.168056,37.271389]},"properties":{"cartodb_id":564,"msha_id":4407355,"name":"Surface Mine No. 1","type_":"Surface","county":"Buchanan","unit":"short tons","tot_prod":150372}},{"type":"Feature","geometry":{"type":"Point","coordinates":[-82.713333,36.935833]},"properties":{"cartodb_id":565,"msha_id":4407362,"name":"#1","type_":"Surface","county":"Wise","unit":"short tons","tot_prod":123619}},{"type":"Feature","geometry":{"type":"Point","coordinates":[-82.432778,36.974167]},"properties":{"cartodb_id":566,"msha_id":4407365,"name":"Gobco #12","type_":"Surface","county":"Wise","unit":"short tons","tot_prod":60919}},{"type":"Feature","geometry":{"type":"Point","coordinates":[-80.3625,39.402778]},"properties":{"cartodb_id":567,"msha_id":4601318,"name":"Harrison County Mine","type_":"Underground","county":"Marion","unit":"short tons","tot_prod":6586715}},{"type":"Feature","geometry":{"type":"Point","coordinates":[-80.291389,39.608333]},"properties":{"cartodb_id":568,"msha_id":4601433,"name":"Marion County Mine","type_":"Underground","county":"Marion","unit":"short tons","tot_prod":4370847}},{"type":"Feature","geometry":{"type":"Point","coordinates":[-80.726637,40.202273]},"properties":{"cartodb_id":569,"msha_id":4601436,"name":"Ohio County Mine","type_":"Underground","county":"Marshall","unit":"short tons","tot_prod":6265878}},{"type":"Feature","geometry":{"type":"Point","coordinates":[-80.486391,39.478299]},"properties":{"cartodb_id":570,"msha_id":4601437,"name":"Marshall County Mine","type_":"Underground","county":"Marshall","unit":"short tons","tot_prod":10523671}},{"type":"Feature","geometry":{"type":"Point","coordinates":[-80.252778,39.667778]},"properties":{"cartodb_id":571,"msha_id":4601456,"name":"Federal No 2","type_":"Underground","county":"Monongalia","unit":"short tons","tot_prod":1507373}},{"type":"Feature","geometry":{"type":"Point","coordinates":[-81.569167,37.575556]},"properties":{"cartodb_id":572,"msha_id":4601544,"name":"Road Fork #51 Mine","type_":"Underground","county":"Wyoming","unit":"short tons","tot_prod":679487}},{"type":"Feature","geometry":{"type":"Point","coordinates":[-81.492109,37.546736]},"properties":{"cartodb_id":573,"msha_id":4601816,"name":"Pinnacle Mine","type_":"Underground","county":"Wyoming","unit":"short tons","tot_prod":921453}},{"type":"Feature","geometry":{"type":"Point","coordinates":[-80.334167,39.751944]},"properties":{"cartodb_id":574,"msha_id":4601968,"name":"Monongalia County Mine","type_":"Underground","county":"Greene","unit":"short tons","tot_prod":3895290}},{"type":"Feature","geometry":{"type":"Point","coordinates":[-81.550633,37.229323]},"properties":{"cartodb_id":575,"msha_id":4602380,"name":"Bishop Impoundment Area","type_":"Surface","county":"Mcdowell","unit":"short tons","tot_prod":25000}},{"type":"Feature","geometry":{"type":"Point","coordinates":[-80.049722,39.2]},"properties":{"cartodb_id":576,"msha_id":4604168,"name":"Sentinel Mine","type_":"Underground","county":"Barbour","unit":"short tons","tot_prod":1001623}},{"type":"Feature","geometry":{"type":"Point","coordinates":[-81.334167,38.035833]},"properties":{"cartodb_id":577,"msha_id":4604236,"name":"Maple Eagle No. 1 Mine","type_":"Underground","county":"Fayette","unit":"short tons","tot_prod":333665}},{"type":"Feature","geometry":{"type":"Point","coordinates":[-81.855157,38.113179]},"properties":{"cartodb_id":578,"msha_id":4604670,"name":"Hobet Mine","type_":"Surface","county":"Boone","unit":"short tons","tot_prod":153884}},{"type":"Feature","geometry":{"type":"Point","coordinates":[-81.26257,37.770852]},"properties":{"cartodb_id":579,"msha_id":4605252,"name":"Beckley Pocahontas Mine","type_":"Underground","county":"Raleigh","unit":"short tons","tot_prod":982725}},{"type":"Feature","geometry":{"type":"Point","coordinates":[-81.468756,38.166234]},"properties":{"cartodb_id":580,"msha_id":4605437,"name":"American Eagle Mine","type_":"Underground","county":"Kanawha","unit":"short tons","tot_prod":2041927}},{"type":"Feature","geometry":{"type":"Point","coordinates":[-80.000493,39.706903]},"properties":{"cartodb_id":581,"msha_id":4605589,"name":"Crawdad No 1 Mine","type_":"Underground","county":"Monongalia","unit":"short tons","tot_prod":322270}},{"type":"Feature","geometry":{"type":"Point","coordinates":[-81.495556,37.273889]},"properties":{"cartodb_id":582,"msha_id":4605741,"name":"Low Gap Surface Mine","type_":"Surface","county":"Mcdowell","unit":"short tons","tot_prod":11722}},{"type":"Feature","geometry":{"type":"Point","coordinates":[-82.315278,37.820833]},"properties":{"cartodb_id":583,"msha_id":4606089,"name":"Minway No. 1","type_":"Surface","county":"Mingo","unit":"short tons","tot_prod":71565}},{"type":"Feature","geometry":{"type":"Point","coordinates":[-81.609722,37.6025]},"properties":{"cartodb_id":584,"msha_id":4606263,"name":"Wyoming No 2","type_":"Underground","county":"Wyoming","unit":"short tons","tot_prod":228957}},{"type":"Feature","geometry":{"type":"Point","coordinates":[-81.623611,37.506111]},"properties":{"cartodb_id":585,"msha_id":4606265,"name":"Sewell Mine B","type_":"Underground","county":"Mcdowell","unit":"short tons","tot_prod":97208}},{"type":"Feature","geometry":{"type":"Point","coordinates":[-81.550556,37.227778]},"properties":{"cartodb_id":586,"msha_id":4606578,"name":"Red Fox Surface Mine","type_":"Surface","county":"Mcdowell","unit":"short tons","tot_prod":16917}},{"type":"Feature","geometry":{"type":"Point","coordinates":[-81.591667,37.793611]},"properties":{"cartodb_id":587,"msha_id":4606618,"name":"Gateway Eagle Mine","type_":"Underground","county":"Boone","unit":"short tons","tot_prod":535476}},{"type":"Feature","geometry":{"type":"Point","coordinates":[-81.546667,37.409167]},"properties":{"cartodb_id":588,"msha_id":4606843,"name":"No 2 Mine","type_":"Underground","county":"Mcdowell","unit":"short tons","tot_prod":3983}},{"type":"Feature","geometry":{"type":"Point","coordinates":[-81.340067,38.069936]},"properties":{"cartodb_id":589,"msha_id":4607058,"name":"Sycamore Surface Mine","type_":"Surface","county":"Fayette","unit":"short tons","tot_prod":56703}},{"type":"Feature","geometry":{"type":"Point","coordinates":[-81.475,38.058889]},"properties":{"cartodb_id":590,"msha_id":4607178,"name":"Samples Surface Mine","type_":"Surface","county":"Kanawha","unit":"short tons","tot_prod":1063433}},{"type":"Feature","geometry":{"type":"Point","coordinates":[-81.545833,37.409167]},"properties":{"cartodb_id":591,"msha_id":4607366,"name":"No 1","type_":"Underground","county":"Mcdowell","unit":"short tons","tot_prod":38399}},{"type":"Feature","geometry":{"type":"Point","coordinates":[-80.46774,38.148932]},"properties":{"cartodb_id":592,"msha_id":4607376,"name":"Lost Flat Surface Mine","type_":"Surface","county":"Greenbrier","unit":"short tons","tot_prod":17615}},{"type":"Feature","geometry":{"type":"Point","coordinates":[-81.7,38.054167]},"properties":{"cartodb_id":593,"msha_id":4607938,"name":"Black Castle Mining Company, L","type_":"Surface","county":"Boone","unit":"short tons","tot_prod":1672123}},{"type":"Feature","geometry":{"type":"Point","coordinates":[-81.563889,37.303056]},"properties":{"cartodb_id":594,"msha_id":4608131,"name":"Mine No. 35","type_":"Underground","county":"Mcdowell","unit":"short tons","tot_prod":847}},{"type":"Feature","geometry":{"type":"Point","coordinates":[-80.088056,38.838611]},"properties":{"cartodb_id":595,"msha_id":4608194,"name":"Pleasant Hill Mine","type_":"Underground","county":"Upshur","unit":"short tons","tot_prod":400301}},{"type":"Feature","geometry":{"type":"Point","coordinates":[-81.483097,37.917033]},"properties":{"cartodb_id":596,"msha_id":4608315,"name":"Brushy Eagle","type_":"Underground","county":"Raleigh","unit":"short tons","tot_prod":94990}},{"type":"Feature","geometry":{"type":"Point","coordinates":[-81.498056,37.996667]},"properties":{"cartodb_id":597,"msha_id":4608384,"name":"Seng Creek Powellton","type_":"Underground","county":"Boone","unit":"short tons","tot_prod":23508}},{"type":"Feature","geometry":{"type":"Point","coordinates":[-81.319722,38.007222]},"properties":{"cartodb_id":598,"msha_id":4608625,"name":"Kingston No 1","type_":"Underground","county":"Fayette","unit":"short tons","tot_prod":258103}},{"type":"Feature","geometry":{"type":"Point","coordinates":[-82.1375,37.775277]},"properties":{"cartodb_id":599,"msha_id":4608627,"name":"Red Oak Inc","type_":"Surface","county":"Mingo","unit":"short tons","tot_prod":65771}},{"type":"Feature","geometry":{"type":"Point","coordinates":[-81.899722,37.731944]},"properties":{"cartodb_id":600,"msha_id":4608636,"name":"No. 2","type_":"Underground","county":"Logan","unit":"short tons","tot_prod":24280}},{"type":"Feature","geometry":{"type":"Point","coordinates":[-81.483056,37.387222]},"properties":{"cartodb_id":601,"msha_id":4608647,"name":"Eckman Surface Mine","type_":"Surface","county":"Mcdowell","unit":"short tons","tot_prod":701051}},{"type":"Feature","geometry":{"type":"Point","coordinates":[-81.6875,37.328611]},"properties":{"cartodb_id":602,"msha_id":4608659,"name":"Mine No. 32","type_":"Underground","county":"Mcdowell","unit":"short tons","tot_prod":19559}},{"type":"Feature","geometry":{"type":"Point","coordinates":[-81.291667,37.666667]},"properties":{"cartodb_id":603,"msha_id":4608716,"name":"Tams No.1 Surface Mine","type_":"Surface","county":"Raleigh","unit":"short tons","tot_prod":58668}},{"type":"Feature","geometry":{"type":"Point","coordinates":[-81.559722,38.154167]},"properties":{"cartodb_id":604,"msha_id":4608759,"name":"North Eagle Mine","type_":"Underground","county":"Boone","unit":"short tons","tot_prod":841540}},{"type":"Feature","geometry":{"type":"Point","coordinates":[-80.990556,38.298611]},"properties":{"cartodb_id":605,"msha_id":4608787,"name":"Jerry Fork Eagle","type_":"Underground","county":"Nicholas","unit":"short tons","tot_prod":594190}},{"type":"Feature","geometry":{"type":"Point","coordinates":[-81.898056,37.815556]},"properties":{"cartodb_id":606,"msha_id":4608801,"name":"Aracoma Alma Mine #1","type_":"Underground","county":"Logan","unit":"short tons","tot_prod":503664}},{"type":"Feature","geometry":{"type":"Point","coordinates":[-81.908889,37.820278]},"properties":{"cartodb_id":607,"msha_id":4608802,"name":"Hernshaw Mine","type_":"Underground","county":"Logan","unit":"short tons","tot_prod":310363}},{"type":"Feature","geometry":{"type":"Point","coordinates":[-82.203889,37.744167]},"properties":{"cartodb_id":608,"msha_id":4608808,"name":"Ruby Energy","type_":"Underground","county":"Mingo","unit":"short tons","tot_prod":1114699}},{"type":"Feature","geometry":{"type":"Point","coordinates":[-81.977222,37.728611]},"properties":{"cartodb_id":609,"msha_id":4608838,"name":"Superior Surface Mine","type_":"Surface","county":"Logan","unit":"short tons","tot_prod":43449}},{"type":"Feature","geometry":{"type":"Point","coordinates":[-81.458889,38.201944]},"properties":{"cartodb_id":610,"msha_id":4608849,"name":"Dry Branch Surface No 1","type_":"Surface","county":"Kanawha","unit":"short tons","tot_prod":20342}},{"type":"Feature","geometry":{"type":"Point","coordinates":[-80.982002,40.135271]},"properties":{"cartodb_id":611,"msha_id":4608864,"name":"Tunnel Ridge Mine","type_":"Underground","county":"Ohio","unit":"short tons","tot_prod":6593227}},{"type":"Feature","geometry":{"type":"Point","coordinates":[-81.630556,37.91]},"properties":{"cartodb_id":612,"msha_id":4608870,"name":"Synergy Surface Mine No 1","type_":"Surface","county":"Boone","unit":"short tons","tot_prod":72030}},{"type":"Feature","geometry":{"type":"Point","coordinates":[-81.228056,37.711111]},"properties":{"cartodb_id":613,"msha_id":4608878,"name":"Affinity Mine","type_":"Underground","county":"Raleigh","unit":"short tons","tot_prod":898321}},{"type":"Feature","geometry":{"type":"Point","coordinates":[-81.662261,37.952956]},"properties":{"cartodb_id":614,"msha_id":4608921,"name":"Surface Mine No. 7","type_":"Surface","county":"Boone","unit":"short tons","tot_prod":14346}},{"type":"Feature","geometry":{"type":"Point","coordinates":[-82.090277,37.565833]},"properties":{"cartodb_id":615,"msha_id":4608930,"name":"Grapevine South Surface Mine","type_":"Surface","county":"Mingo","unit":"short tons","tot_prod":238384}},{"type":"Feature","geometry":{"type":"Point","coordinates":[-81.31,37.965833]},"properties":{"cartodb_id":616,"msha_id":4608932,"name":"Kingston No. 2","type_":"Underground","county":"Fayette","unit":"short tons","tot_prod":306678}},{"type":"Feature","geometry":{"type":"Point","coordinates":[-81.776389,37.8125]},"properties":{"cartodb_id":617,"msha_id":4608939,"name":"Guyan Mine","type_":"Surface","county":"Logan","unit":"short tons","tot_prod":55489}},{"type":"Feature","geometry":{"type":"Point","coordinates":[-81.956389,37.758333]},"properties":{"cartodb_id":618,"msha_id":4608973,"name":"Wv-3 Surface Mine","type_":"Surface","county":"Logan","unit":"short tons","tot_prod":305521}},{"type":"Feature","geometry":{"type":"Point","coordinates":[-81.529167,37.858056]},"properties":{"cartodb_id":619,"msha_id":4608977,"name":"Edwight Surface Mine","type_":"Surface","county":"Raleigh","unit":"short tons","tot_prod":11929}},{"type":"Feature","geometry":{"type":"Point","coordinates":[-82.072222,37.702778]},"properties":{"cartodb_id":620,"msha_id":4608984,"name":"Coal-Mac Inc Holden #22 Surfac","type_":"Surface","county":"Logan","unit":"short tons","tot_prod":2054196}},{"type":"Feature","geometry":{"type":"Point","coordinates":[-81.982222,37.092222]},"properties":{"cartodb_id":621,"msha_id":4609007,"name":"Red Ash Highwall Miner","type_":"Surface","county":"Mcdowell","unit":"short tons","tot_prod":880}},{"type":"Feature","geometry":{"type":"Point","coordinates":[-81.314167,37.916389]},"properties":{"cartodb_id":622,"msha_id":4609026,"name":"Ewing Fork No. 1 Surface Mine","type_":"Surface","county":"Raleigh","unit":"short tons","tot_prod":787432}},{"type":"Feature","geometry":{"type":"Point","coordinates":[-79.381667,39.187222]},"properties":{"cartodb_id":623,"msha_id":4609028,"name":"Mountain View Mine","type_":"Underground","county":"Tucker","unit":"short tons","tot_prod":2014302}},{"type":"Feature","geometry":{"type":"Point","coordinates":[-81.798611,37.911944]},"properties":{"cartodb_id":624,"msha_id":4609029,"name":"Mountaineer Ii Mine","type_":"Underground","county":"Logan","unit":"short tons","tot_prod":1478926}},{"type":"Feature","geometry":{"type":"Point","coordinates":[-80.595277,38.491388]},"properties":{"cartodb_id":625,"msha_id":4609036,"name":"Seven Pines","type_":"Surface","county":"Webster","unit":"short tons","tot_prod":161495}},{"type":"Feature","geometry":{"type":"Point","coordinates":[-81.455873,37.915272]},"properties":{"cartodb_id":626,"msha_id":4609048,"name":"Slip Ridge Cedar Grove Mine","type_":"Underground","county":"Raleigh","unit":"short tons","tot_prod":418137}},{"type":"Feature","geometry":{"type":"Point","coordinates":[-80.179444,39.517222]},"properties":{"cartodb_id":627,"msha_id":4609050,"name":"Barrackville Refuse Pile","type_":"Surface","county":"Marion","unit":"short tons","tot_prod":50126}},{"type":"Feature","geometry":{"type":"Point","coordinates":[-81.346944,37.976111]},"properties":{"cartodb_id":628,"msha_id":4609054,"name":"Republic Energy","type_":"Surface","county":"Fayette","unit":"short tons","tot_prod":1396742}},{"type":"Feature","geometry":{"type":"Point","coordinates":[-81.671234,37.639624]},"properties":{"cartodb_id":629,"msha_id":4609062,"name":"Coal Mountain No 1 Surface","type_":"Surface","county":"Wyoming","unit":"short tons","tot_prod":833874}},{"type":"Feature","geometry":{"type":"Point","coordinates":[-81.696111,38.161944]},"properties":{"cartodb_id":630,"msha_id":4609070,"name":"Boone North No. 2 Surface Mine","type_":"Surface","county":"Boone","unit":"short tons","tot_prod":437612}},{"type":"Feature","geometry":{"type":"Point","coordinates":[-82.161695,37.804533]},"properties":{"cartodb_id":631,"msha_id":4609075,"name":"Twin Branch No 1","type_":"Surface","county":"Mingo","unit":"short tons","tot_prod":1355119}},{"type":"Feature","geometry":{"type":"Point","coordinates":[-81.899722,37.872222]},"properties":{"cartodb_id":632,"msha_id":4609089,"name":"Camp Branch Mine","type_":"Surface","county":"Logan","unit":"short tons","tot_prod":57561}},{"type":"Feature","geometry":{"type":"Point","coordinates":[-81.317357,37.88867]},"properties":{"cartodb_id":633,"msha_id":4609091,"name":"Horse Creek Eagle","type_":"Underground","county":"Raleigh","unit":"short tons","tot_prod":558901}},{"type":"Feature","geometry":{"type":"Point","coordinates":[-81.307617,37.897239]},"properties":{"cartodb_id":634,"msha_id":4609092,"name":"Allen Powellton Mine","type_":"Underground","county":"Raleigh","unit":"short tons","tot_prod":347950}},{"type":"Feature","geometry":{"type":"Point","coordinates":[-81.635833,37.323611]},"properties":{"cartodb_id":635,"msha_id":4609100,"name":"Mountain Fork No 2","type_":"Underground","county":"Mcdowell","unit":"short tons","tot_prod":11321}},{"type":"Feature","geometry":{"type":"Point","coordinates":[-81.724167,37.812778]},"properties":{"cartodb_id":636,"msha_id":4609101,"name":"Toney Fork Surface Mine","type_":"Surface","county":"Logan","unit":"short tons","tot_prod":633884}},{"type":"Feature","geometry":{"type":"Point","coordinates":[-81.224167,38.035556]},"properties":{"cartodb_id":637,"msha_id":4609105,"name":"Surface No 5","type_":"Surface","county":"Fayette","unit":"short tons","tot_prod":1198}},{"type":"Feature","geometry":{"type":"Point","coordinates":[-83.243616,37.560248]},"properties":{"cartodb_id":638,"msha_id":4609151,"name":"#46 (Phelps)","type_":"Surface","county":"Pike","unit":"short tons","tot_prod":100822}},{"type":"Feature","geometry":{"type":"Point","coordinates":[-81.565396,37.812571]},"properties":{"cartodb_id":639,"msha_id":4609152,"name":"Black Oak Mine","type_":"Underground","county":"Boone","unit":"short tons","tot_prod":314574}},{"type":"Feature","geometry":{"type":"Point","coordinates":[-81.850833,37.815]},"properties":{"cartodb_id":640,"msha_id":4609153,"name":"Samples Mine Highwall Miner","type_":"Surface","county":"Kanawha","unit":"short tons","tot_prod":160242}},{"type":"Feature","geometry":{"type":"Point","coordinates":[-81.473889,37.395556]},"properties":{"cartodb_id":689,"msha_id":4609496,"name":"Mine No. 43","type_":"Underground","county":"Mcdowell","unit":"short tons","tot_prod":210104}},{"type":"Feature","geometry":{"type":"Point","coordinates":[-80.631944,38.016667]},"properties":{"cartodb_id":641,"msha_id":4609154,"name":"Pocahontas Mine","type_":"Underground","county":"Greenbrier","unit":"short tons","tot_prod":4176}},{"type":"Feature","geometry":{"type":"Point","coordinates":[-81.556026,38.00466]},"properties":{"cartodb_id":642,"msha_id":4609163,"name":"Roundbottom Powellton Deep Min","type_":"Underground","county":"Boone","unit":"short tons","tot_prod":33136}},{"type":"Feature","geometry":{"type":"Point","coordinates":[-81.400556,38.109167]},"properties":{"cartodb_id":643,"msha_id":4609170,"name":"Four Mile Surface Mine No 2","type_":"Surface","county":"Kanawha","unit":"short tons","tot_prod":274260}},{"type":"Feature","geometry":{"type":"Point","coordinates":[-80.645712,38.036594]},"properties":{"cartodb_id":644,"msha_id":4609172,"name":"Mountaineer Pocahontas No 1 Mi","type_":"Underground","county":"Greenbrier","unit":"short tons","tot_prod":4577}},{"type":"Feature","geometry":{"type":"Point","coordinates":[-79.958611,39.331111]},"properties":{"cartodb_id":645,"msha_id":4609192,"name":"Leer Mine","type_":"Underground","county":"Taylor","unit":"short tons","tot_prod":3574262}},{"type":"Feature","geometry":{"type":"Point","coordinates":[-81.68,37.323611]},"properties":{"cartodb_id":646,"msha_id":4609198,"name":"Caretta #3 Mine","type_":"Underground","county":"Mcdowell","unit":"short tons","tot_prod":13833}},{"type":"Feature","geometry":{"type":"Point","coordinates":[-81.903333,37.841389]},"properties":{"cartodb_id":647,"msha_id":4609204,"name":"Reylas Surface Mine","type_":"Surface","county":"Logan","unit":"short tons","tot_prod":622165}},{"type":"Feature","geometry":{"type":"Point","coordinates":[-81.688056,37.334444]},"properties":{"cartodb_id":648,"msha_id":4609207,"name":"Mine No 2","type_":"Underground","county":"Mcdowell","unit":"short tons","tot_prod":1990}},{"type":"Feature","geometry":{"type":"Point","coordinates":[-81.66035,37.792456]},"properties":{"cartodb_id":649,"msha_id":4609217,"name":"Powellton #1 Mine","type_":"Underground","county":"Logan","unit":"short tons","tot_prod":672116}},{"type":"Feature","geometry":{"type":"Point","coordinates":[-81.497222,37.248333]},"properties":{"cartodb_id":650,"msha_id":4609219,"name":"Highwall Miner #2","type_":"Surface","county":"Tazewell","unit":"short tons","tot_prod":19805}},{"type":"Feature","geometry":{"type":"Point","coordinates":[-81.374167,38.275833]},"properties":{"cartodb_id":651,"msha_id":4609221,"name":"Slabcamp","type_":"Underground","county":"Kanawha","unit":"short tons","tot_prod":937837}},{"type":"Feature","geometry":{"type":"Point","coordinates":[-81.464444,38.058333]},"properties":{"cartodb_id":652,"msha_id":4609230,"name":"Winchester  Ug Mine","type_":"Underground","county":"Kanawha","unit":"short tons","tot_prod":532403}},{"type":"Feature","geometry":{"type":"Point","coordinates":[-81.578333,38.126944]},"properties":{"cartodb_id":653,"msha_id":4609258,"name":"Peerless Rachel Mine","type_":"Underground","county":"Boone","unit":"short tons","tot_prod":774752}},{"type":"Feature","geometry":{"type":"Point","coordinates":[-81.625475,37.333494]},"properties":{"cartodb_id":654,"msha_id":4609261,"name":"Mine No. 39","type_":"Underground","county":"Mcdowell","unit":"short tons","tot_prod":280120}},{"type":"Feature","geometry":{"type":"Point","coordinates":[-82.309722,37.751389]},"properties":{"cartodb_id":655,"msha_id":4609277,"name":"Alma No 1","type_":"Underground","county":"Mingo","unit":"short tons","tot_prod":12103}},{"type":"Feature","geometry":{"type":"Point","coordinates":[-81.419444,38.036667]},"properties":{"cartodb_id":656,"msha_id":4609285,"name":"Briar Mountain Surface Mine","type_":"Surface","county":"Kanawha","unit":"short tons","tot_prod":3726}},{"type":"Feature","geometry":{"type":"Point","coordinates":[-81.492222,38.001111]},"properties":{"cartodb_id":657,"msha_id":4609293,"name":"Hunter Peerless Mine","type_":"Underground","county":"Boone","unit":"short tons","tot_prod":62111}},{"type":"Feature","geometry":{"type":"Point","coordinates":[-81.776389,37.761944]},"properties":{"cartodb_id":658,"msha_id":4609294,"name":"Washington Mine","type_":"Underground","county":"Logan","unit":"short tons","tot_prod":578947}},{"type":"Feature","geometry":{"type":"Point","coordinates":[-81.461067,38.35249]},"properties":{"cartodb_id":659,"msha_id":4609296,"name":"Blue Creek No. 2 Mine","type_":"Underground","county":"Kanawha","unit":"short tons","tot_prod":149050}},{"type":"Feature","geometry":{"type":"Point","coordinates":[-81.459722,38.352778]},"properties":{"cartodb_id":660,"msha_id":4609297,"name":"Blue Creek No. 1 Ug Mine","type_":"Underground","county":"Kanawha","unit":"short tons","tot_prod":681203}},{"type":"Feature","geometry":{"type":"Point","coordinates":[-81.838333,38.152222]},"properties":{"cartodb_id":661,"msha_id":4609309,"name":"Hill Fork Mine","type_":"Surface","county":"Boone","unit":"short tons","tot_prod":76024}},{"type":"Feature","geometry":{"type":"Point","coordinates":[-81.268889,37.388611]},"properties":{"cartodb_id":662,"msha_id":4609311,"name":"Mine No. 1","type_":"Surface","county":"Mercer","unit":"short tons","tot_prod":111183}},{"type":"Feature","geometry":{"type":"Point","coordinates":[-81.727222,37.734444]},"properties":{"cartodb_id":663,"msha_id":4609319,"name":"Lower War Eagle","type_":"Underground","county":"Wyoming","unit":"short tons","tot_prod":724976}},{"type":"Feature","geometry":{"type":"Point","coordinates":[-82.876944,37.166944]},"properties":{"cartodb_id":664,"msha_id":4609321,"name":"No 34 Auger","type_":"Surface","county":"Letcher","unit":"short tons","tot_prod":1410}},{"type":"Feature","geometry":{"type":"Point","coordinates":[-79.697778,40.489722]},"properties":{"cartodb_id":665,"msha_id":4609330,"name":"Nichol Auger Mine","type_":"Surface","county":"Indiana","unit":"short tons","tot_prod":14605}},{"type":"Feature","geometry":{"type":"Point","coordinates":[-82.116988,37.610161]},"properties":{"cartodb_id":666,"msha_id":4609345,"name":"Remining #3","type_":"Surface","county":"Mingo","unit":"short tons","tot_prod":123757}},{"type":"Feature","geometry":{"type":"Point","coordinates":[-81.851389,37.447778]},"properties":{"cartodb_id":667,"msha_id":4609348,"name":"Horse Creek No 1","type_":"Underground","county":"Mcdowell","unit":"short tons","tot_prod":43493}},{"type":"Feature","geometry":{"type":"Point","coordinates":[-80.567222,38.576388]},"properties":{"cartodb_id":668,"msha_id":4609351,"name":"Sumter","type_":"Underground","county":"Webster","unit":"short tons","tot_prod":93689}},{"type":"Feature","geometry":{"type":"Point","coordinates":[-80.658333,38.544722]},"properties":{"cartodb_id":669,"msha_id":4609353,"name":"Jackson Bridge 1","type_":"Underground","county":"Webster","unit":"short tons","tot_prod":38884}},{"type":"Feature","geometry":{"type":"Point","coordinates":[-81.895,37.816389]},"properties":{"cartodb_id":670,"msha_id":4609361,"name":"Cedar Grove #2 Mine","type_":"Underground","county":"Logan","unit":"short tons","tot_prod":392274}},{"type":"Feature","geometry":{"type":"Point","coordinates":[-82.195833,37.797222]},"properties":{"cartodb_id":671,"msha_id":4609362,"name":"Mine No. 5","type_":"Underground","county":"Mingo","unit":"short tons","tot_prod":102133}},{"type":"Feature","geometry":{"type":"Point","coordinates":[-82.599722,37.945278]},"properties":{"cartodb_id":672,"msha_id":4609370,"name":"Miner #57","type_":"Surface","county":"Buchanan","unit":"short tons","tot_prod":14308}},{"type":"Feature","geometry":{"type":"Point","coordinates":[-81.448333,37.400278]},"properties":{"cartodb_id":673,"msha_id":4609378,"name":"Mine No. 42","type_":"Underground","county":"Mcdowell","unit":"short tons","tot_prod":246672}},{"type":"Feature","geometry":{"type":"Point","coordinates":[-81.871111,37.501667]},"properties":{"cartodb_id":674,"msha_id":4609387,"name":"Lower War Eagle Mine","type_":"Underground","county":"Mcdowell","unit":"short tons","tot_prod":83824}},{"type":"Feature","geometry":{"type":"Point","coordinates":[-81.43,37.356111]},"properties":{"cartodb_id":675,"msha_id":4609395,"name":"Dry Branch Surface Mine","type_":"Surface","county":"Mcdowell","unit":"short tons","tot_prod":470232}},{"type":"Feature","geometry":{"type":"Point","coordinates":[-82.156553,37.810347]},"properties":{"cartodb_id":676,"msha_id":4609409,"name":"Shm 12-66","type_":"Surface","county":"Raleigh","unit":"short tons","tot_prod":201123}},{"type":"Feature","geometry":{"type":"Point","coordinates":[-79.507778,39.0075]},"properties":{"cartodb_id":677,"msha_id":4609415,"name":"Shm 06","type_":"Surface","county":"Bell","unit":"short tons","tot_prod":72354}},{"type":"Feature","geometry":{"type":"Point","coordinates":[-81.491389,37.773611]},"properties":{"cartodb_id":678,"msha_id":4609427,"name":"Eagle #3 Mine","type_":"Underground","county":"Wyoming","unit":"short tons","tot_prod":173609}},{"type":"Feature","geometry":{"type":"Point","coordinates":[-81.395,37.381944]},"properties":{"cartodb_id":679,"msha_id":4609441,"name":"Switchback Loadout","type_":"Surface","county":"Mcdowell","unit":"short tons","tot_prod":118940}},{"type":"Feature","geometry":{"type":"Point","coordinates":[-81.4,37.36]},"properties":{"cartodb_id":680,"msha_id":4609442,"name":"Puncheoncamp Surface","type_":"Surface","county":"Mcdowell","unit":"short tons","tot_prod":29746}},{"type":"Feature","geometry":{"type":"Point","coordinates":[-80.4825,38.121667]},"properties":{"cartodb_id":681,"msha_id":4609448,"name":"Blue Knob Surface Mine","type_":"Surface","county":"Greenbrier","unit":"short tons","tot_prod":96945}},{"type":"Feature","geometry":{"type":"Point","coordinates":[-81.708854,37.322338]},"properties":{"cartodb_id":682,"msha_id":4609455,"name":"Sewell Mine R","type_":"Underground","county":"Mcdowell","unit":"short tons","tot_prod":6509}},{"type":"Feature","geometry":{"type":"Point","coordinates":[-80.679444,38.026667]},"properties":{"cartodb_id":683,"msha_id":4609473,"name":"No. 1 Surface Mine","type_":"Surface","county":"Greenbrier","unit":"short tons","tot_prod":104654}},{"type":"Feature","geometry":{"type":"Point","coordinates":[-81.37713,37.885911]},"properties":{"cartodb_id":684,"msha_id":4609475,"name":"Workman Creek Surface","type_":"Surface","county":"Raleigh","unit":"short tons","tot_prod":443966}},{"type":"Feature","geometry":{"type":"Point","coordinates":[-81.555,37.408611]},"properties":{"cartodb_id":685,"msha_id":4609480,"name":"Skyway Iii Mine","type_":"Surface","county":"Mcdowell","unit":"short tons","tot_prod":12132}},{"type":"Feature","geometry":{"type":"Point","coordinates":[-81.635763,37.286272]},"properties":{"cartodb_id":686,"msha_id":4609484,"name":"Newhall Surface Mine No. 2","type_":"Surface","county":"Mcdowell","unit":"short tons","tot_prod":58029}},{"type":"Feature","geometry":{"type":"Point","coordinates":[-81.751667,37.360556]},"properties":{"cartodb_id":687,"msha_id":4609485,"name":"Atwell Branch Surface Mine","type_":"Surface","county":"Mcdowell","unit":"short tons","tot_prod":7815}},{"type":"Feature","geometry":{"type":"Point","coordinates":[-80.641667,38.0475]},"properties":{"cartodb_id":688,"msha_id":4609490,"name":"Pollock Knob Surface Mine","type_":"Surface","county":"Greenbrier","unit":"short tons","tot_prod":188730}},{"type":"Feature","geometry":{"type":"Point","coordinates":[-81.581944,37.480556]},"properties":{"cartodb_id":690,"msha_id":4609507,"name":"Edm No. 1 Mine","type_":"Underground","county":"Mcdowell","unit":"short tons","tot_prod":12527}},{"type":"Feature","geometry":{"type":"Point","coordinates":[-81.465556,37.782222]},"properties":{"cartodb_id":691,"msha_id":4609513,"name":"Eagle Creek #10","type_":"Surface","county":"Wyoming","unit":"short tons","tot_prod":39072}},{"type":"Feature","geometry":{"type":"Point","coordinates":[-81.771389,37.743889]},"properties":{"cartodb_id":692,"msha_id":4609514,"name":"Muddy Bridge","type_":"Underground","county":"Logan","unit":"short tons","tot_prod":33248}},{"type":"Feature","geometry":{"type":"Point","coordinates":[-81.865391,37.735776]},"properties":{"cartodb_id":693,"msha_id":4609518,"name":"Pounding  Mill Surface Mine","type_":"Surface","county":"Logan","unit":"short tons","tot_prod":3873}},{"type":"Feature","geometry":{"type":"Point","coordinates":[-105.631272,44.500723]},"properties":{"cartodb_id":694,"msha_id":4800083,"name":"Wyodak Mine","type_":"Surface","county":"Campbell","unit":"short tons","tot_prod":3817414}},{"type":"Feature","geometry":{"type":"Point","coordinates":[-110.136944,41.48]},"properties":{"cartodb_id":695,"msha_id":4800086,"name":"Kemmerer Mine","type_":"Surface","county":"Lincoln","unit":"short tons","tot_prod":4105900}},{"type":"Feature","geometry":{"type":"Point","coordinates":[-108.616389,41.799722]},"properties":{"cartodb_id":696,"msha_id":4800677,"name":"Jim Bridger Mine","type_":"Surface","county":"Sweetwater","unit":"short tons","tot_prod":2449926}},{"type":"Feature","geometry":{"type":"Point","coordinates":[-105.383333,44.1]},"properties":{"cartodb_id":697,"msha_id":4800732,"name":"Belle Ayr Mine","type_":"Surface","county":"Campbell","unit":"short tons","tot_prod":14883227}},{"type":"Feature","geometry":{"type":"Point","coordinates":[-105.266667,42.693611]},"properties":{"cartodb_id":698,"msha_id":4800977,"name":"Black Thunder","type_":"Surface","county":"Campbell","unit":"short tons","tot_prod":67889779}},{"type":"Feature","geometry":{"type":"Point","coordinates":[-105.183333,44.066667]},"properties":{"cartodb_id":699,"msha_id":4800992,"name":"Cordero Rojo Mine","type_":"Surface","county":"Campbell","unit":"short tons","tot_prod":18332046}},{"type":"Feature","geometry":{"type":"Point","coordinates":[-105.32,44.21]},"properties":{"cartodb_id":700,"msha_id":4800993,"name":"Rawhide Mine","type_":"Surface","county":"Campbell","unit":"short tons","tot_prod":8079139}},{"type":"Feature","geometry":{"type":"Point","coordinates":[-105.33749,44.123394]},"properties":{"cartodb_id":701,"msha_id":4801034,"name":"Caballo Mine","type_":"Surface","county":"Campbell","unit":"short tons","tot_prod":11221557}},{"type":"Feature","geometry":{"type":"Point","coordinates":[-105.416667,44.516667]},"properties":{"cartodb_id":702,"msha_id":4801078,"name":"Eagle Butte Mine","type_":"Surface","county":"Campbell","unit":"short tons","tot_prod":19003005}},{"type":"Feature","geometry":{"type":"Point","coordinates":[-108.666389,41.618889]},"properties":{"cartodb_id":703,"msha_id":4801180,"name":"Black Butte And Leucite Hills","type_":"Surface","county":"Sweetwater","unit":"short tons","tot_prod":2160163}},{"type":"Feature","geometry":{"type":"Point","coordinates":[-105.528611,44.433611]},"properties":{"cartodb_id":704,"msha_id":4801200,"name":"Buckskin Mine","type_":"Surface","county":"Campbell","unit":"short tons","tot_prod":7130578}},{"type":"Feature","geometry":{"type":"Point","coordinates":[-105.2825,43.971944]},"properties":{"cartodb_id":705,"msha_id":4801215,"name":"Coal Creek Mine","type_":"Surface","county":"Campbell","unit":"short tons","tot_prod":8179632}},{"type":"Feature","geometry":{"type":"Point","coordinates":[-105.161619,43.495642]},"properties":{"cartodb_id":706,"msha_id":4801337,"name":"Antelope Coal Mine","type_":"Surface","county":"Converse","unit":"short tons","tot_prod":29793257}},{"type":"Feature","geometry":{"type":"Point","coordinates":[-105.183188,43.714923]},"properties":{"cartodb_id":707,"msha_id":4801353,"name":"North Antelope Rochelle Mine","type_":"Surface","county":"Campbell","unit":"short tons","tot_prod":92863811}},{"type":"Feature","geometry":{"type":"Point","coordinates":[-105.734722,44.650278]},"properties":{"cartodb_id":708,"msha_id":4801429,"name":"Dry Fork Mine","type_":"Surface","county":"Campbell","unit":"short tons","tot_prod":6141433}},{"type":"Feature","geometry":{"type":"Point","coordinates":[-108.820394,41.818288]},"properties":{"cartodb_id":709,"msha_id":4801646,"name":"Bridger Underground Coal Mine","type_":"Underground","county":"Sweetwater","unit":"short tons","tot_prod":1167265}},{"type":"Feature","geometry":{"type":"Point","coordinates":[-148.966111,63.856944]},"properties":{"cartodb_id":710,"msha_id":5000030,"name":"Usibelli","type_":"Surface","county":"Denali","unit":"short tons","tot_prod":932122}}]}
